[{"airportIATA":"PTY","name":"Tocumen International Airport","city":"Panama City","country":"Panama","lat":9.0713596344,"lon":-79.3834991455},{"airportIATA":"DUB","name":"Dublin Airport","city":"Dublin","country":"Ireland","lat":53.4212989807,"lon":-6.270070076},{"airportIATA":"DEL","name":"Indira Gandhi International Airport","city":"Delhi","country":"India","lat":28.5664997101,"lon":77.1031036377},{"airportIATA":"RAK","name":"Menara Airport","city":"Marrakech","country":"Morocco","lat":31.6068992615,"lon":-8.0362997055},{"airportIATA":"DMK","name":"Don Mueang International Airport","city":"Bangkok","country":"Thailand","lat":13.9125995636,"lon":100.6070022583},{"airportIATA":"ABJ","name":"Félix-Houphouët-Boigny International Airport","city":"Abidjan","country":"Cote d'Ivoire","lat":5.2613902092,"lon":-3.9262900352},{"airportIATA":"YVR","name":"Vancouver International Airport","city":"Vancouver","country":"Canada","lat":49.193901062,"lon":-123.1839981079},{"airportIATA":"WLG","name":"Wellington International Airport","city":"Wellington","country":"New Zealand","lat":-41.3272018433,"lon":174.804992676},{"airportIATA":"BEL","name":"Val de Cans International Airport","city":"Belem","country":"Brazil","lat":-1.3792500496,"lon":-48.4762992859},{"airportIATA":"DFW","name":"Dallas-Fort Worth International Airport","city":"Dallas","country":"United States","lat":32.8972330556,"lon":-97.0376947222},{"airportIATA":"SEA","name":"Seattle–Tacoma International Airport","city":"Seattle","country":"United States","lat":47.4498888889,"lon":-122.3117777778},{"airportIATA":"DTW","name":"Detroit Metropolitan Wayne County Airport","city":"Detroit","country":"United States","lat":42.2124444444,"lon":-83.3533888889},{"airportIATA":"JFK","name":"John F. Kennedy International Airport","city":"New York","country":"United States","lat":40.6399277778,"lon":-73.7786925},{"airportIATA":"SIN","name":"Singapore Changi Airport","city":"Singapore","country":"Singapore","lat":1.3501900434,"lon":103.9940032959},{"airportIATA":"TUN","name":"Tunis Carthage International Airport","city":"Tunis","country":"Tunisia","lat":36.8510017395,"lon":10.2271995544},{"airportIATA":"IAH","name":"George Bush Intercontinental Houston Airport","city":"Houston","country":"United States","lat":29.9844352778,"lon":-95.3414425},{"airportIATA":"CPT","name":"Cape Town International Airport","city":"Cape Town","country":"South Africa","lat":-33.9648017883,"lon":18.6016998291},{"airportIATA":"CJU","name":"Jeju International Airport","city":"Cheju","country":"South Korea","lat":33.5112991333,"lon":126.4929962158},{"airportIATA":"CBR","name":"Canberra International Airport","city":"Canberra","country":"Australia","lat":-35.3069000244,"lon":149.1950073242},{"airportIATA":"MCY","name":"Sunshine Coast Airport","city":"Maroochydore","country":"Australia","lat":-26.6033000946,"lon":153.091003418},{"airportIATA":"SAW","name":"Sabiha Gökçen International Airport","city":"Istanbul","country":"Turkey","lat":40.898601532,"lon":29.3092002869},{"airportIATA":"ACC","name":"Kotoka International Airport","city":"Accra","country":"Ghana","lat":5.6051898003,"lon":-0.1667860001},{"airportIATA":"DUS","name":"Düsseldorf International Airport","city":"Duesseldorf","country":"Germany","lat":51.2895011902,"lon":6.7667798996},{"airportIATA":"DRW","name":"Darwin International Airport","city":"Darwin","country":"Australia","lat":-12.4146995544,"lon":130.8769989014},{"airportIATA":"ARN","name":"Stockholm Arlanda Airport","city":"Stockholm","country":"Sweden","lat":59.6519012451,"lon":17.9186000824},{"airportIATA":"ALG","name":"Houari Boumediene Airport","city":"Algier","country":"Algeria","lat":36.6910018921,"lon":3.2154099941},{"airportIATA":"ATH","name":"Athens International Airport","city":"Athens","country":"Greece","lat":37.9364013672,"lon":23.9444999695},{"airportIATA":"CAI","name":"Cairo International Airport","city":"Cairo","country":"Egypt","lat":30.1219005585,"lon":31.4055995941},{"airportIATA":"PHL","name":"Philadelphia International Airport","city":"Philadelphia","country":"United States","lat":39.8720838889,"lon":-75.2406630556},{"airportIATA":"CWB","name":"Afonso Pena Airport","city":"Curitiba","country":"Brazil","lat":-25.5284996033,"lon":-49.1758003235},{"airportIATA":"CNF","name":"Tancredo Neves International Airport","city":"Belo Horizonte","country":"Brazil","lat":-19.6244430542,"lon":-43.9719429016},{"airportIATA":"DXB","name":"Dubai International Airport","city":"Dubai","country":"United Arab Emirates","lat":25.2527999878,"lon":55.3643989563},{"airportIATA":"HAV","name":"José Martí International Airport","city":"Havana","country":"Cuba","lat":22.989200592,"lon":-82.4091033936},{"airportIATA":"NRT","name":"Narita International Airport","city":"Tokyo","country":"Japan","lat":35.7647018433,"lon":140.3860015869},{"airportIATA":"BNE","name":"Brisbane International Airport","city":"Brisbane","country":"Australia","lat":-27.3841991425,"lon":153.1170043945},{"airportIATA":"AYT","name":"Antalya Airport","city":"Antalya","country":"Turkey","lat":36.8987007141,"lon":30.8005008698},{"airportIATA":"PMR","name":"Palmerston North Airport","city":"Palmerston North","country":"New Zealand","lat":-40.3205986023,"lon":175.6170043945},{"airportIATA":"MIA","name":"Miami International Airport","city":"Miami","country":"United States","lat":25.7953611111,"lon":-80.2901158333},{"airportIATA":"OSL","name":"Oslo Airport","city":" Gardermoen,Oslo","country":"Norway","lat":60.193901062,"lon":11.100399971},{"airportIATA":"NKG","name":"Nanjing Lukou International Airport","city":"Nanjing","country":"China","lat":31.7420005798,"lon":118.8619995117},{"airportIATA":"KTA","name":"Karratha Airport","city":"Karratha","country":"Australia","lat":-20.7122001648,"lon":116.773002625},{"airportIATA":"EBB","name":"Entebbe International Airport","city":"Entebbe","country":"Uganda","lat":0.0423859991,"lon":32.4435005188},{"airportIATA":"CNS","name":"Cairns International Airport","city":"Cairns","country":"Australia","lat":-16.885799408,"lon":145.755004883},{"airportIATA":"AMS","name":"Amsterdam Airport Schiphol","city":"Amsterdam","country":"Netherlands","lat":52.3086013794,"lon":4.7638897896},{"airportIATA":"ATL","name":"Hartsfield–Jackson Atlanta International Airport","city":"Atlanta","country":"United States","lat":33.6366996111,"lon":-84.427864},{"airportIATA":"BCN","name":"Barcelona–El Prat Airport","city":"Barcelona","country":"Spain","lat":41.2971000671,"lon":2.0784599781},{"airportIATA":"PEK","name":"Beijing Capital International Airport","city":"Beijing","country":"China","lat":40.0801010132,"lon":116.5849990845},{"airportIATA":"BKK","name":"Suvarnabhumi Airport","city":"Bangkok","country":"Thailand","lat":13.6810998917,"lon":100.7470016479},{"airportIATA":"CUN","name":"Cancún International Airport","city":"Cancun","country":"Mexico","lat":21.0365009308,"lon":-86.8770980835},{"airportIATA":"LIS","name":"Lisbon Portela Airport","city":"Lisbon","country":"Portugal","lat":38.7812995911,"lon":-9.1359195709},{"airportIATA":"ASP","name":"Alice Springs Airport","city":"Alice Springs","country":"Australia","lat":-23.8066997528,"lon":133.9019927979},{"airportIATA":"HND","name":"Haneda Airport","city":"Tokyo","country":"Japan","lat":35.5522994995,"lon":139.7799987793},{"airportIATA":"AGP","name":"Málaga Airport","city":"Malaga","country":"Spain","lat":36.6749000549,"lon":-4.4991102219},{"airportIATA":"TIJ","name":"General Abelardo L. Rodríguez International Airport","city":"Tijuana","country":"Mexico","lat":32.5410995483,"lon":-116.9700012207},{"airportIATA":"DUR","name":"King Shaka International Airport","city":"Durban","country":"South Africa","lat":-29.6144444444,"lon":31.1197222222},{"airportIATA":"DUD","name":"Dunedin Airport","city":"Dunedin","country":"New Zealand","lat":-45.9281005859,"lon":170.1979980469},{"airportIATA":"HGH","name":"Hangzhou Xiaoshan International Airport","city":"Hangzhou","country":"China","lat":30.2294998169,"lon":120.4339981079},{"airportIATA":"STN","name":"London Stansted Airport","city":"London","country":"United Kingdom","lat":51.8849983215,"lon":0.2349999994},{"airportIATA":"NTL","name":"Newcastle Airport","city":"Newcastle","country":"Australia","lat":-32.7949981689,"lon":151.8339996338},{"airportIATA":"KUL","name":"Kuala Lumpur International Airport","city":"Kuala Lumpur","country":"Malaysia","lat":2.745579958,"lon":101.7099990845},{"airportIATA":"HBA","name":"Hobart International Airport","city":"Hobart","country":"Australia","lat":-42.836101532,"lon":147.509994507},{"airportIATA":"MTY","name":"Monterrey International Airport","city":"Monterrey","country":"Mexico","lat":25.7784996033,"lon":-100.107002258},{"airportIATA":"BOM","name":"Chhatrapati Shivaji International Airport","city":"Mumbai","country":"India","lat":19.0886993408,"lon":72.8678970337},{"airportIATA":"FLN","name":"Hercílio Luz International Airport","city":"Florianopolis","country":"Brazil","lat":-27.6702785492,"lon":-48.5525016785},{"airportIATA":"LAX","name":"Los Angeles International Airport","city":"Los Angeles","country":"United States","lat":33.9424963889,"lon":-118.4080486111},{"airportIATA":"SYD","name":"Sydney Airport","city":"Sydney","country":"Australia","lat":-33.9460983276,"lon":151.1770019531},{"airportIATA":"SFO","name":"San Francisco International Airport","city":"San Francisco","country":"United States","lat":37.6188055556,"lon":-122.3754166667},{"airportIATA":"DLA","name":"Douala International Airport","city":"Douala","country":"Cameroon","lat":4.0060801506,"lon":9.7194795609},{"airportIATA":"SCL","name":"Comodoro Arturo Merino Benítez International Airport","city":"Santiago","country":"Chile","lat":-33.3930015564,"lon":-70.7857971191},{"airportIATA":"HEL","name":"Helsinki Airport","city":"Helsinki","country":"Finland","lat":60.317199707,"lon":24.963300705},{"airportIATA":"SDU","name":"Santos Dumont Airport","city":"Rio De Janeiro","country":"Brazil","lat":-22.9104995728,"lon":-43.1631011963},{"airportIATA":"SVO","name":"Sheremetyevo International Airport","city":"Moscow","country":"Russia","lat":55.9725990295,"lon":37.4146003723},{"airportIATA":"KRT","name":"Khartoum International Airport","city":"Khartoum","country":"Sudan","lat":15.590333,"lon":32.553},{"airportIATA":"MEX","name":"Mexico City International Airport","city":"Mexico City","country":"Mexico","lat":19.4363002777,"lon":-99.0720977783},{"airportIATA":"SAN","name":"San Diego International Airport","city":"San Diego","country":"United States","lat":32.7335627778,"lon":-117.1896633333},{"airportIATA":"MUN","name":"Maturín Airport","city":"Maturin","country":"Venezuela","lat":9.754529953,"lon":-63.1473999023},{"airportIATA":"YYZ","name":"Toronto Pearson International Airport","city":"Toronto","country":"Canada","lat":43.6772003174,"lon":-79.6305999756},{"airportIATA":"GYN","name":"Santa Genoveva Airport","city":"Goiania","country":"Brazil","lat":-16.6319999695,"lon":-49.2206993103},{"airportIATA":"HKG","name":"Hong Kong International Airport","city":"Hong Kong","country":"Hong Kong","lat":22.3089008331,"lon":113.915000916},{"airportIATA":"LST","name":"Launceston Airport","city":"Launceston","country":"Australia","lat":-41.54529953,"lon":147.214004517},{"airportIATA":"POA","name":"Salgado Filho Airport","city":"Porto Alegre","country":"Brazil","lat":-29.9944000244,"lon":-51.1713981628},{"airportIATA":"CTU","name":"Chengdu Shuangliu International Airport","city":"Chengdu","country":"China","lat":30.5785007477,"lon":103.9469985962},{"airportIATA":"CGK","name":"Soekarno-Hatta International Airport","city":"Jakarta","country":"Indonesia","lat":-6.1255698204,"lon":106.65599823},{"airportIATA":"EZE","name":"Ministro Pistarini International Airport","city":"Buenos Aires","country":"Argentina","lat":-34.8222,"lon":-58.5358},{"airportIATA":"ORN","name":"Es Senia Airport","city":"Oran","country":"Algeria","lat":35.6239013672,"lon":-0.6211829782},{"airportIATA":"CDG","name":"Charles de Gaulle International Airport","city":"Paris","country":"France","lat":49.0127983093,"lon":2.5499999523},{"airportIATA":"FOR","name":"Pinto Martins International Airport","city":"Fortaleza","country":"Brazil","lat":-3.7762799263,"lon":-38.5326004028},{"airportIATA":"LIM","name":"Jorge Chávez International Airport","city":"Lima","country":"Peru","lat":-12.021900177,"lon":-77.1143035889},{"airportIATA":"XIY","name":"Xi'an Xianyang International Airport","city":"Xi'an","country":"China","lat":34.447101593,"lon":108.7519989014},{"airportIATA":"ORD","name":"O'Hare International Airport","city":"Chicago","country":"United States","lat":41.9769402778,"lon":-87.9081497222},{"airportIATA":"CLT","name":"Charlotte Douglas International Airport","city":"Charlotte","country":"United States","lat":35.21375,"lon":-80.9490555556},{"airportIATA":"ROK","name":"Rockhampton Airport","city":"Rockhampton","country":"Australia","lat":-23.3819007874,"lon":150.475006104},{"airportIATA":"GRU","name":"São Paulo–Guarulhos International Airport","city":"Sao Paulo","country":"Brazil","lat":-23.4355564117,"lon":-46.4730567932},{"airportIATA":"DME","name":"Moscow Domodedovo Airport","city":"Moscow","country":"Russia","lat":55.4087982178,"lon":37.9062995911},{"airportIATA":"MAN","name":"Manchester Airport","city":"Manchester","country":"United Kingdom","lat":53.3536987305,"lon":-2.2749500275},{"airportIATA":"HTI","name":"Hamilton Island Airport","city":"Hamilton Island","country":"Australia","lat":-20.3581008911,"lon":148.95199585},{"airportIATA":"PVG","name":"Shanghai Pudong International Airport","city":"Shanghai","country":"China","lat":31.1434001923,"lon":121.8050003052},{"airportIATA":"NPE","name":"Hawke's Bay Airport","city":"NAPIER","country":"New Zealand","lat":-39.465801239,"lon":176.8699951172},{"airportIATA":"BOG","name":"El Dorado International Airport","city":"Bogota","country":"Colombia","lat":4.70159,"lon":-74.1469},{"airportIATA":"HBE","name":"Borg El Arab Airport","city":"Alexandria","country":"Egypt","lat":30.9176998138,"lon":29.6963996887},{"airportIATA":"LGW","name":"Gatwick Airport","city":"London","country":"United Kingdom","lat":51.1481018066,"lon":-0.1902779937},{"airportIATA":"MIR","name":"Monastir Habib Bourguiba International Airport","city":"Monastir","country":"Tunisia","lat":35.7580986023,"lon":10.754699707},{"airportIATA":"ZQN","name":"Queenstown International Airport","city":"Queenstown International","country":"New Zealand","lat":-45.0210990906,"lon":168.738998413},{"airportIATA":"DOH","name":"Hamad International Airport","city":"Doha","country":"Qatar","lat":25.2605946,"lon":51.6137665},{"airportIATA":"JED","name":"King Abdulaziz International Airport","city":"Jeddah","country":"Saudi Arabia","lat":21.679599762,"lon":39.15650177},{"airportIATA":"BOS","name":"Logan International Airport","city":"Boston","country":"United States","lat":42.3629444444,"lon":-71.0063888889},{"airportIATA":"SGN","name":"Tan Son Nhat International Airport","city":"Ho Chi Minh City","country":"Vietnam","lat":10.8187999725,"lon":106.652000427},{"airportIATA":"PLZ","name":"Port Elizabeth International Airport","city":"Port Elizabeth","country":"South Africa","lat":-33.9849014282,"lon":25.6173000336},{"airportIATA":"ADD","name":"Addis Ababa Bole International Airport","city":"Addis Ababa","country":"Ethiopia","lat":8.9778900147,"lon":38.7993011475},{"airportIATA":"MCO","name":"Orlando International Airport","city":"Orlando","country":"United States","lat":28.4293888889,"lon":-81.309},{"airportIATA":"KMG","name":"Kunming Changshui International Airport","city":"Kunming","country":"China","lat":24.9923992157,"lon":102.7440032959},{"airportIATA":"MRU","name":"Sir Seewoosagur Ramgoolam International Airport","city":"Plaisance","country":"Mauritius","lat":-20.4302005768,"lon":57.6836013794},{"airportIATA":"DKR","name":"Léopold Sédar Senghor International Airport","city":"Dakar","country":"Senegal","lat":14.7397003174,"lon":-17.4902000427},{"airportIATA":"FLL","name":"Fort Lauderdale Hollywood International Airport","city":"Fort Lauderdale","country":"United States","lat":26.0716666667,"lon":-80.1496944444},{"airportIATA":"PER","name":"Perth International Airport","city":"Perth","country":"Australia","lat":-31.9402999878,"lon":115.9670028687},{"airportIATA":"TSV","name":"Townsville Airport","city":"Townsville","country":"Australia","lat":-19.2525005341,"lon":146.7649993896},{"airportIATA":"MKY","name":"Mackay Airport","city":"Mackay","country":"Australia","lat":-21.1716995239,"lon":149.179992676},{"airportIATA":"MAD","name":"Adolfo Suárez Madrid–Barajas Airport","city":"Madrid","country":"Spain","lat":40.4936,"lon":-3.56676},{"airportIATA":"SSH","name":"Sharm El Sheikh International Airport","city":"Sharm El Sheikh","country":"Egypt","lat":27.9773006439,"lon":34.3950004578},{"airportIATA":"BRU","name":"Brussels Airport","city":"Brussels","country":"Belgium","lat":50.9014015198,"lon":4.4844398499},{"airportIATA":"DJE","name":"Djerba–Zarzis International Airport","city":"Djerba","country":"Tunisia","lat":33.875,"lon":10.7755002975},{"airportIATA":"AKL","name":"Auckland International Airport","city":"Auckland","country":"New Zealand","lat":-37.0080986023,"lon":174.7920074463},{"airportIATA":"CHC","name":"Christchurch International Airport","city":"Christchurch","country":"New Zealand","lat":-43.4893989563,"lon":172.5319976807},{"airportIATA":"RUN","name":"Roland Garros Airport","city":"St.-denis","country":"Reunion","lat":-20.8871002197,"lon":55.5102996826},{"airportIATA":"MXP","name":"Milan–Malpensa Airport","city":"Milano","country":"Italy","lat":45.6305999756,"lon":8.7281103134},{"airportIATA":"DCA","name":"Ronald Reagan Washington National Airport","city":"Washington","country":"United States","lat":38.8514402778,"lon":-77.0377213889},{"airportIATA":"MNL","name":"Ninoy Aquino International Airport","city":"Manila","country":"Philippines","lat":14.508600235,"lon":121.019996643},{"airportIATA":"LGA","name":"LaGuardia Airport","city":"New York","country":"United States","lat":40.77725,"lon":-73.8726111111},{"airportIATA":"FCO","name":"Leonardo da Vinci–Fiumicino Airport","city":"Rome","country":"Italy","lat":41.8045005798,"lon":12.2508001328},{"airportIATA":"KIX","name":"Kansai International Airport","city":"Osaka","country":"Japan","lat":34.4272994995,"lon":135.2440032959},{"airportIATA":"SZX","name":"Shenzhen Bao'an International Airport","city":"Shenzhen","country":"China","lat":22.6392993927,"lon":113.8109970093},{"airportIATA":"MUC","name":"Munich Airport","city":"Munich","country":"Germany","lat":48.3538017273,"lon":11.7861003876},{"airportIATA":"OOL","name":"Gold Coast Airport","city":"Coolangatta","country":"Australia","lat":-28.1644001007,"lon":153.505004883},{"airportIATA":"LAD","name":"Quatro de Fevereiro Airport","city":"Luanda","country":"Angola","lat":-8.8583698273,"lon":13.2312002182},{"airportIATA":"ADL","name":"Adelaide International Airport","city":"Adelaide","country":"Australia","lat":-34.9449996948,"lon":138.5310058594},{"airportIATA":"ZRH","name":"Zürich Airport","city":"Zurich","country":"Switzerland","lat":47.4646987915,"lon":8.5491695404},{"airportIATA":"AGA","name":"Agadir–Al Massira Airport","city":"Agadir","country":"Morocco","lat":30.3250007629,"lon":-9.413069725},{"airportIATA":"TXL","name":"Berlin-Tegel International Airport","city":"Berlin","country":"Germany","lat":52.5597000122,"lon":13.2876996994},{"airportIATA":"LHR","name":"Heathrow Airport","city":"London","country":"United Kingdom","lat":51.4706001282,"lon":-0.4619410038},{"airportIATA":"VCP","name":"Viracopos International Airport","city":"Campinas","country":"Brazil","lat":-23.0074005127,"lon":-47.1344985962},{"airportIATA":"PHX","name":"Phoenix Sky Harbor International Airport","city":"Phoenix","country":"United States","lat":33.4342777778,"lon":-112.0115833333},{"airportIATA":"BSB","name":"Presidente Juscelino Kubistschek International Airport","city":"Brasilia","country":"Brazil","lat":-15.8691673279,"lon":-47.9208335876},{"airportIATA":"ORL","name":"Orlando Executive Airport","city":"Orlando","country":"United States","lat":28.5454616667,"lon":-81.33293},{"airportIATA":"GDL","name":"Guadalajara International Airport","city":"Guadalajara","country":"Mexico","lat":20.5217990875,"lon":-103.3109970093},{"airportIATA":"REC","name":"Guararapes - Gilberto Freyre International Airport","city":"Recife","country":"Brazil","lat":-8.1264896393,"lon":-34.9235992432},{"airportIATA":"PMI","name":"Palma De Mallorca Airport","city":"Palma de Mallorca","country":"Spain","lat":39.551700592,"lon":2.7388100624},{"airportIATA":"MSP","name":"Minneapolis-St Paul International\/Wold-Chamberlain Airport","city":"Minneapolis","country":"United States","lat":44.8819722222,"lon":-93.2217777778},{"airportIATA":"NBO","name":"Jomo Kenyatta International Airport","city":"Nairobi","country":"Kenya","lat":-1.319239974,"lon":36.9277992249},{"airportIATA":"FRA","name":"Frankfurt am Main International Airport","city":"Frankfurt","country":"Germany","lat":50.0264015198,"lon":8.543129921},{"airportIATA":"CGH","name":"São Paulo–Congonhas Airport","city":"Sao Paulo","country":"Brazil","lat":-23.6261100769,"lon":-46.6563873291},{"airportIATA":"SSA","name":"Deputado Luís Eduardo Magalhães International Airport","city":"Salvador","country":"Brazil","lat":-12.9086112976,"lon":-38.3224983215},{"airportIATA":"EWR","name":"Newark Liberty International Airport","city":"Newark","country":"United States","lat":40.6924798333,"lon":-74.1686867778},{"airportIATA":"POM","name":"Port Moresby Jacksons International Airport","city":"Port Moresby","country":"Papua New Guinea","lat":-9.4433803558,"lon":147.2200012207},{"airportIATA":"TPE","name":"Taiwan Taoyuan International Airport","city":"Taipei","country":"Taiwan","lat":25.0776996613,"lon":121.233001709},{"airportIATA":"CUZ","name":"Alejandro Velasco Astete International Airport","city":"Cuzco","country":"Peru","lat":-13.5356998444,"lon":-71.9387969971},{"airportIATA":"ICN","name":"Incheon International Airport","city":"Seoul","country":"South Korea","lat":37.4691009521,"lon":126.4509963989},{"airportIATA":"CMN","name":"Mohammed V International Airport","city":"Casablanca","country":"Morocco","lat":33.3675003052,"lon":-7.5899701118},{"airportIATA":"MEL","name":"Melbourne Airport","city":"Melbourne","country":"Australia","lat":-37.6733016968,"lon":144.8430023193},{"airportIATA":"PHE","name":"Port Hedland International Airport","city":"Port Hedland","country":"Australia","lat":-20.3777999878,"lon":118.625999451},{"airportIATA":"CAN","name":"Guangzhou Baiyun International Airport","city":"Guangzhou","country":"China","lat":23.3924007416,"lon":113.2990036011},{"airportIATA":"GIG","name":"Rio de Janeiro–Galeão International Airport","city":"Rio De Janeiro","country":"Brazil","lat":-22.8099994659,"lon":-43.2505569458},{"airportIATA":"AEP","name":"Aeroparque Jorge Newbery","city":"Buenos Aires","country":"Argentina","lat":-34.5592,"lon":-58.4156},{"airportIATA":"SLC","name":"Salt Lake City International Airport","city":"Salt Lake City","country":"United States","lat":40.7883933333,"lon":-111.9777733333},{"airportIATA":"ABV","name":"Nnamdi Azikiwe International Airport","city":"Abuja","country":"Nigeria","lat":9.0067901611,"lon":7.2631697655},{"airportIATA":"VIE","name":"Vienna International Airport","city":"Vienna","country":"Austria","lat":48.1102981567,"lon":16.5697002411},{"airportIATA":"SJO","name":"Juan Santamaria International Airport","city":"San Jose","country":"Costa Rica","lat":9.9938602448,"lon":-84.2088012695},{"airportIATA":"LAS","name":"McCarran International Airport","city":"Las Vegas","country":"United States","lat":36.0800438889,"lon":-115.1522347222},{"airportIATA":"MDW","name":"Midway International Airport","city":"Chicago","country":"United States","lat":41.7859722222,"lon":-87.7524166667},{"airportIATA":"NAN","name":"Nadi International Airport","city":"Nandi","country":"Fiji","lat":-17.755399704,"lon":177.4429931641},{"airportIATA":"CKG","name":"Chongqing Jiangbei International Airport","city":"Chongqing","country":"China","lat":29.7192001343,"lon":106.641998291},{"airportIATA":"HRG","name":"Hurghada International Airport","city":"Hurghada","country":"Egypt","lat":27.1783008575,"lon":33.7994003296},{"airportIATA":"DEN","name":"Denver International Airport","city":"Denver","country":"United States","lat":39.8616666667,"lon":-104.6731666667},{"airportIATA":"DAR","name":"Julius Nyerere International Airport","city":"Dar Es Salaam","country":"Tanzania","lat":-6.8781099319,"lon":39.2025985718},{"airportIATA":"NSN","name":"Nelson Airport","city":"Nelson","country":"New Zealand","lat":-41.2983016968,"lon":173.220993042},{"airportIATA":"LOS","name":"Murtala Muhammed International Airport","city":"Lagos","country":"Nigeria","lat":6.5773701668,"lon":3.321160078},{"airportIATA":"CPH","name":"Copenhagen Airport","city":"Copenhagen","country":"Denmark","lat":55.6179008484,"lon":12.6560001373},{"airportIATA":"BWI","name":"Baltimore\/Washington International Thurgood Marshall Airport","city":"Baltimore","country":"United States","lat":39.1757283333,"lon":-76.6689911111},{"airportIATA":"IST","name":"Istanbul Atatürk Airport","city":"Istanbul","country":"Turkey","lat":41.275333,"lon":28.752},{"airportIATA":"SHA","name":"Shanghai Hongqiao International Airport","city":"Shanghai","country":"China","lat":31.1979007721,"lon":121.3359985352},{"airportIATA":"JNB","name":"O. R. Tambo International Airport","city":"Johannesburg","country":"South Africa","lat":-26.133667,"lon":28.242333},{"airportIATA":"IAD","name":"Washington Dulles International Airport","city":"Washington","country":"United States","lat":38.9474444444,"lon":-77.4599444444}]