[{"flightNumber":"11386","originIATA":"DEL","destinationIATA":"MIA","airline":"Emirates","aircraftID":"5CSZBB3UYCVS60629","year":"2015","month":"01","age":29,"passengerCount":16,"name":"Airbus A320neo","aircraftType":"32N","originName":"Indira Gandhi International Airport","city_x":"Delhi","country_x":"India","originLat":28.5664997101,"originLon":77.1031036377,"destinationName":"Miami International Airport","city_y":"Miami","country_y":"United States","destinationLat":25.7953611111,"destinationLon":-80.2901158333,"distance":157.4176125616},{"flightNumber":"14053","originIATA":"ROK","destinationIATA":"CNS","airline":"Qatar","aircraftID":"EZD8H2C325EH23405","year":"2015","month":"01","age":56,"passengerCount":23,"name":"Boeing 777-300","aircraftType":"773","originName":"Rockhampton Airport","city_x":"Rockhampton","country_x":"Australia","originLat":-23.3819007874,"originLon":150.475006104,"destinationName":"Cairns International Airport","city_y":"Cairns","country_y":"Australia","destinationLat":-16.885799408,"destinationLon":145.755004883,"distance":8.0298035255},{"flightNumber":"20306","originIATA":"HRG","destinationIATA":"FRA","airline":"American","aircraftID":"GRKDAJH3RDLA28989","year":"2015","month":"01","age":36,"passengerCount":20,"name":"Sukhoi Superjet 100-95","aircraftType":"SU9","originName":"Hurghada International Airport","city_x":"Hurghada","country_x":"Egypt","originLat":27.1783008575,"originLon":33.7994003296,"destinationName":"Frankfurt am Main International Airport","city_y":"Frankfurt","country_y":"Germany","destinationLat":50.0264015198,"destinationLon":8.543129921,"distance":34.0575233807},{"flightNumber":"23035","originIATA":"EWR","destinationIATA":"WLG","airline":"Qatar","aircraftID":"ZJLW91GF5WXS49253","year":"2015","month":"01","age":46,"passengerCount":14,"name":"Boeing 737-700","aircraftType":"73G","originName":"Newark Liberty International Airport","city_x":"Newark","country_x":"United States","originLat":40.6924798333,"originLon":-74.1686867778,"destinationName":"Wellington International Airport","city_y":"Wellington","country_y":"New Zealand","destinationLat":-41.3272018433,"destinationLon":174.804992676,"distance":262.1356924249},{"flightNumber":"26026","originIATA":"POA","destinationIATA":"CLT","airline":"Qatar","aircraftID":"AA67UG7DW7G268677","year":"2015","month":"01","age":44,"passengerCount":9,"name":"Boeing 720B","aircraftType":"B72","originName":"Salgado Filho Airport","city_x":"Porto Alegre","country_x":"Brazil","originLat":-29.9944000244,"originLon":-51.1713981628,"destinationName":"Charlotte Douglas International Airport","city_y":"Charlotte","country_y":"United States","destinationLat":35.21375,"destinationLon":-80.9490555556,"distance":71.685505574},{"flightNumber":"28353","originIATA":"LOS","destinationIATA":"CDG","airline":"Qatar","aircraftID":"RNA336230EWM50036","year":"2015","month":"01","age":52,"passengerCount":12,"name":"Boeing 747-400D","aircraftType":"74J","originName":"Murtala Muhammed International Airport","city_x":"Lagos","country_x":"Nigeria","originLat":6.5773701668,"originLon":3.321160078,"destinationName":"Charles de Gaulle International Airport","city_y":"Paris","country_y":"France","destinationLat":49.0127983093,"destinationLon":2.5499999523,"distance":42.4424345388},{"flightNumber":"29572","originIATA":"DME","destinationIATA":"GYN","airline":"Emirates","aircraftID":"UBG6WVXUUYGK88770","year":"2015","month":"01","age":38,"passengerCount":23,"name":"Canadair CL-44","aircraftType":"CL4","originName":"Moscow Domodedovo Airport","city_x":"Moscow","country_x":"Russia","originLat":55.4087982178,"originLon":37.9062995911,"destinationName":"Santa Genoveva Airport","city_y":"Goiania","country_y":"Brazil","destinationLat":-16.6319999695,"destinationLon":-49.2206993103,"distance":113.0530430419},{"flightNumber":"29717","originIATA":"CDG","destinationIATA":"ZRH","airline":"Qatar","aircraftID":"01S2PK34ABK219426","year":"2015","month":"01","age":43,"passengerCount":8,"name":"Boeing 737-300","aircraftType":"733","originName":"Charles de Gaulle International Airport","city_x":"Paris","country_x":"France","originLat":49.0127983093,"originLon":2.5499999523,"destinationName":"Z\u00fcrich Airport","city_y":"Zurich","country_y":"Switzerland","destinationLat":47.4646987915,"destinationLon":8.5491695404,"distance":6.1956959144},{"flightNumber":"30000","originIATA":"LAS","destinationIATA":"MEX","airline":"Qatar","aircraftID":"GDE3H1VAUGPY80431","year":"2015","month":"01","age":59,"passengerCount":27,"name":"Lockheed L-182 \/ 282 \/ 382 (L-100) Hercules","aircraftType":"LOH","originName":"McCarran International Airport","city_x":"Las Vegas","country_x":"United States","originLat":36.0800438889,"originLon":-115.1522347222,"destinationName":"Mexico City International Airport","city_y":"Mexico City","country_y":"Mexico","destinationLat":19.4363002777,"destinationLon":-99.0720977783,"distance":23.1427095546},{"flightNumber":"36610","originIATA":"DKR","destinationIATA":"LIS","airline":"Emirates","aircraftID":"M9HT753H9BAY39499","year":"2015","month":"01","age":58,"passengerCount":17,"name":"Douglas DC-9-10","aircraftType":"D91","originName":"L\u00e9opold S\u00e9dar Senghor International Airport","city_x":"Dakar","country_x":"Senegal","originLat":14.7397003174,"originLon":-17.4902000427,"destinationName":"Lisbon Portela Airport","city_y":"Lisbon","country_y":"Portugal","destinationLat":38.7812995911,"destinationLon":-9.1359195709,"distance":25.451768069},{"flightNumber":"38793","originIATA":"NAN","destinationIATA":"IAH","airline":"LATAM","aircraftID":"5AMAE1GAE5TW99144","year":"2015","month":"01","age":54,"passengerCount":17,"name":"Boeing 757-300","aircraftType":"753","originName":"Nadi International Airport","city_x":"Nandi","country_x":"Fiji","originLat":-17.755399704,"originLon":177.4429931641,"destinationName":"George Bush Intercontinental Houston Airport","city_y":"Houston","country_y":"United States","destinationLat":29.9844352778,"destinationLon":-95.3414425,"distance":276.9303886984},{"flightNumber":"41600","originIATA":"MAN","destinationIATA":"VCP","airline":"LATAM","aircraftID":"K2RMWSWSBFNL41174","year":"2015","month":"01","age":43,"passengerCount":22,"name":"Embraer E195-E2","aircraftType":"295","originName":"Manchester Airport","city_x":"Manchester","country_x":"United Kingdom","originLat":53.3536987305,"originLon":-2.2749500275,"destinationName":"Viracopos International Airport","city_y":"Campinas","country_y":"Brazil","destinationLat":-23.0074005127,"destinationLon":-47.1344985962,"distance":88.5629526124},{"flightNumber":"48126","originIATA":"BSB","destinationIATA":"ICN","airline":"LATAM","aircraftID":"GB225NUFERCX28281","year":"2015","month":"01","age":57,"passengerCount":14,"name":"Boeing 767-300","aircraftType":"763","originName":"Presidente Juscelino Kubistschek International Airport","city_x":"Brasilia","country_x":"Brazil","originLat":-15.8691673279,"originLon":-47.9208335876,"destinationName":"Incheon International Airport","city_y":"Seoul","country_y":"South Korea","destinationLat":37.4691009521,"destinationLon":126.4509963989,"distance":182.3472126355},{"flightNumber":"49412","originIATA":"HBE","destinationIATA":"SAW","airline":"LATAM","aircraftID":"VU55JML6NFGD18582","year":"2015","month":"01","age":61,"passengerCount":13,"name":"Douglas DC-3","aircraftType":"D3F","originName":"Borg El Arab Airport","city_x":"Alexandria","country_x":"Egypt","originLat":30.9176998138,"originLon":29.6963996887,"destinationName":"Sabiha G\u00f6k\u00e7en International Airport","city_y":"Istanbul","country_y":"Turkey","destinationLat":40.898601532,"destinationLon":29.3092002869,"distance":9.9884094072},{"flightNumber":"51853","originIATA":"NRT","destinationIATA":"RAK","airline":"Emirates","aircraftID":"MV9VWAHF0TJE69030","year":"2015","month":"01","age":49,"passengerCount":16,"name":"Airbus A320","aircraftType":"320","originName":"Narita International Airport","city_x":"Tokyo","country_x":"Japan","originLat":35.7647018433,"originLon":140.3860015869,"destinationName":"Menara Airport","city_y":"Marrakech","country_y":"Morocco","destinationLat":31.6068992615,"destinationLon":-8.0362997055,"distance":148.4805268149},{"flightNumber":"56105","originIATA":"DFW","destinationIATA":"DUB","airline":"LATAM","aircraftID":"194GZHH1C4KS31375","year":"2015","month":"01","age":57,"passengerCount":12,"name":"Airbus A330-200","aircraftType":"332","originName":"Dallas-Fort Worth International Airport","city_x":"Dallas","country_x":"United States","originLat":32.8972330556,"originLon":-97.0376947222,"destinationName":"Dublin Airport","city_y":"Dublin","country_y":"Ireland","destinationLat":53.4212989807,"destinationLon":-6.270070076,"distance":93.0591154375},{"flightNumber":"57611","originIATA":"ALG","destinationIATA":"ADL","airline":"British Airways","aircraftID":"S1MJZTPENBP919127","year":"2015","month":"01","age":53,"passengerCount":11,"name":"De Havilland DH.104 Dove","aircraftType":"DHD","originName":"Houari Boumediene Airport","city_x":"Algier","country_x":"Algeria","originLat":36.6910018921,"originLon":3.2154099941,"destinationName":"Adelaide International Airport","city_y":"Adelaide","country_y":"Australia","destinationLat":-34.9449996948,"destinationLon":138.5310058594,"distance":153.1078940086},{"flightNumber":"61779","originIATA":"SJO","destinationIATA":"CJU","airline":"Iberia","aircraftID":"38MJ7DSD5NXH87510","year":"2015","month":"01","age":45,"passengerCount":19,"name":"Boeing 757-300","aircraftType":"753","originName":"Juan Santamaria International Airport","city_x":"San Jose","country_x":"Costa Rica","originLat":9.9938602448,"originLon":-84.2088012695,"destinationName":"Jeju International Airport","city_y":"Cheju","country_y":"South Korea","destinationLat":33.5112991333,"destinationLon":126.4929962158,"distance":212.0101822918},{"flightNumber":"66048","originIATA":"DUD","destinationIATA":"MAN","airline":"LATAM","aircraftID":"MHYL4L5BVBN699743","year":"2015","month":"01","age":43,"passengerCount":11,"name":"Embraer RJ135","aircraftType":"ER3","originName":"Dunedin Airport","city_x":"Dunedin","country_x":"New Zealand","originLat":-45.9281005859,"originLon":170.1979980469,"destinationName":"Manchester Airport","city_y":"Manchester","country_y":"United Kingdom","destinationLat":53.3536987305,"destinationLon":-2.2749500275,"distance":199.0070187028},{"flightNumber":"68031","originIATA":"HRG","destinationIATA":"HRG","airline":"Iberia","aircraftID":"VDDZRF7FRRWW77669","year":"2015","month":"01","age":47,"passengerCount":25,"name":"Airbus A330","aircraftType":"330","originName":"Hurghada International Airport","city_x":"Hurghada","country_x":"Egypt","originLat":27.1783008575,"originLon":33.7994003296,"destinationName":"Hurghada International Airport","city_y":"Hurghada","country_y":"Egypt","destinationLat":27.1783008575,"destinationLon":33.7994003296,"distance":0.0},{"flightNumber":"68885","originIATA":"LGA","destinationIATA":"PER","airline":"Emirates","aircraftID":"87VS7P77S5M889648","year":"2015","month":"01","age":56,"passengerCount":27,"name":"Airbus A321","aircraftType":"321","originName":"LaGuardia Airport","city_x":"New York","country_x":"United States","originLat":40.77725,"originLon":-73.8726111111,"destinationName":"Perth International Airport","city_y":"Perth","country_y":"Australia","destinationLat":-31.9402999878,"destinationLon":115.9670028687,"distance":203.2902386054},{"flightNumber":"71000","originIATA":"DUD","destinationIATA":"DEN","airline":"Emirates","aircraftID":"GHFGYAFD8RCS44656","year":"2015","month":"01","age":51,"passengerCount":25,"name":"De Havilland Canada DHC-3 Otter","aircraftType":"DHL","originName":"Dunedin Airport","city_x":"Dunedin","country_x":"New Zealand","originLat":-45.9281005859,"originLon":170.1979980469,"destinationName":"Denver International Airport","city_y":"Denver","country_y":"United States","destinationLat":39.8616666667,"destinationLon":-104.6731666667,"distance":287.9479837683},{"flightNumber":"76798","originIATA":"CKG","destinationIATA":"CGH","airline":"LATAM","aircraftID":"M68EJMJADXY342054","year":"2015","month":"01","age":42,"passengerCount":18,"name":"Boeing 737-700","aircraftType":"73G","originName":"Chongqing Jiangbei International Airport","city_x":"Chongqing","country_x":"China","originLat":29.7192001343,"originLon":106.641998291,"destinationName":"S\u00e3o Paulo\u2013Congonhas Airport","city_y":"Sao Paulo","country_y":"Brazil","destinationLat":-23.6261100769,"destinationLon":-46.6563873291,"distance":162.3148704071},{"flightNumber":"78469","originIATA":"PER","destinationIATA":"CKG","airline":"British Airways","aircraftID":"EGE9B4YGEDG831285","year":"2015","month":"01","age":43,"passengerCount":19,"name":"Boeing 767-200","aircraftType":"762","originName":"Perth International Airport","city_x":"Perth","country_x":"Australia","originLat":-31.9402999878,"originLon":115.9670028687,"destinationName":"Chongqing Jiangbei International Airport","city_y":"Chongqing","country_y":"China","destinationLat":29.7192001343,"destinationLon":106.641998291,"distance":62.3606419601},{"flightNumber":"80470","originIATA":"YVR","destinationIATA":"ICN","airline":"Iberia","aircraftID":"09L5HYFBPUYR30476","year":"2015","month":"01","age":48,"passengerCount":19,"name":"Antonov An-12","aircraftType":"ANF","originName":"Vancouver International Airport","city_x":"Vancouver","country_x":"Canada","originLat":49.193901062,"originLon":-123.1839981079,"destinationName":"Incheon International Airport","city_y":"Seoul","country_y":"South Korea","destinationLat":37.4691009521,"destinationLon":126.4509963989,"distance":249.9101867072},{"flightNumber":"80603","originIATA":"OSL","destinationIATA":"CMN","airline":"Iberia","aircraftID":"JRS0KPY1TYLN96884","year":"2015","month":"01","age":51,"passengerCount":11,"name":"Antonov An-140","aircraftType":"A40","originName":"Oslo Airport","city_x":" Gardermoen,Oslo","country_x":"Norway","originLat":60.193901062,"originLon":11.100399971,"destinationName":"Mohammed V International Airport","city_y":"Casablanca","country_y":"Morocco","destinationLat":33.3675003052,"destinationLon":-7.5899701118,"distance":32.695346938},{"flightNumber":"88556","originIATA":"TUN","destinationIATA":"HND","airline":"Qatar","aircraftID":"JTG2Y8SBVAW194124","year":"2015","month":"01","age":44,"passengerCount":15,"name":"Embraer 175","aircraftType":"E75","originName":"Tunis Carthage International Airport","city_x":"Tunis","country_x":"Tunisia","originLat":36.8510017395,"originLon":10.2271995544,"destinationName":"Haneda Airport","city_y":"Tokyo","country_y":"Japan","destinationLat":35.5522994995,"destinationLon":139.7799987793,"distance":129.5593084827},{"flightNumber":"92193","originIATA":"NRT","destinationIATA":"LAS","airline":"Emirates","aircraftID":"51V85YSTWKK479019","year":"2015","month":"01","age":44,"passengerCount":17,"name":"Boeing 737-500","aircraftType":"735","originName":"Narita International Airport","city_x":"Tokyo","country_x":"Japan","originLat":35.7647018433,"originLon":140.3860015869,"destinationName":"McCarran International Airport","city_y":"Las Vegas","country_y":"United States","destinationLat":36.0800438889,"destinationLon":-115.1522347222,"distance":255.5384308799},{"flightNumber":"94248","originIATA":"FLL","destinationIATA":"LST","airline":"Iberia","aircraftID":"7V1Z6ND8ASFN52835","year":"2015","month":"01","age":49,"passengerCount":16,"name":"Boeing 777-200","aircraftType":"772","originName":"Fort Lauderdale Hollywood International Airport","city_x":"Fort Lauderdale","country_x":"United States","originLat":26.0716666667,"originLon":-80.1496944444,"destinationName":"Launceston Airport","city_y":"Launceston","country_y":"Australia","destinationLat":-41.54529953,"destinationLon":147.214004517,"distance":237.2051975043},{"flightNumber":"99970","originIATA":"BCN","destinationIATA":"PHL","airline":"LATAM","aircraftID":"DRBVLG7C41PH43020","year":"2015","month":"01","age":38,"passengerCount":14,"name":"McDonnell Douglas MD80","aircraftType":"M80","originName":"Barcelona\u2013El Prat Airport","city_x":"Barcelona","country_x":"Spain","originLat":41.2971000671,"originLon":2.0784599781,"destinationName":"Philadelphia International Airport","city_y":"Philadelphia","country_y":"United States","destinationLat":39.8720838889,"destinationLon":-75.2406630556,"distance":77.3322536708},{"flightNumber":"12932","originIATA":"GRU","destinationIATA":"HRG","airline":"Iberia","aircraftID":"ACTUH2SS96JM21459","year":"2015","month":"02","age":57,"passengerCount":22,"name":"Douglas DC-10-30","aircraftType":"D1Y","originName":"S\u00e3o Paulo\u2013Guarulhos International Airport","city_x":"Sao Paulo","country_x":"Brazil","originLat":-23.4355564117,"originLon":-46.4730567932,"destinationName":"Hurghada International Airport","city_y":"Hurghada","country_y":"Egypt","destinationLat":27.1783008575,"destinationLon":33.7994003296,"distance":94.8969436821},{"flightNumber":"14175","originIATA":"MTY","destinationIATA":"BNE","airline":"Iberia","aircraftID":"8LVHFKTKGANT82931","year":"2015","month":"02","age":54,"passengerCount":6,"name":"Boeing 767","aircraftType":"767","originName":"Monterrey International Airport","city_x":"Monterrey","country_x":"Mexico","originLat":25.7784996033,"originLon":-100.107002258,"destinationName":"Brisbane International Airport","city_y":"Brisbane","country_y":"Australia","destinationLat":-27.3841991425,"destinationLon":153.1170043945,"distance":258.7444107282},{"flightNumber":"14755","originIATA":"STN","destinationIATA":"BWI","airline":"Qatar","aircraftID":"BG7081XU0FZ748885","year":"2015","month":"02","age":45,"passengerCount":15,"name":"Antonov An-12","aircraftType":"ANF","originName":"London Stansted Airport","city_x":"London","country_x":"United Kingdom","originLat":51.8849983215,"originLon":0.2349999994,"destinationName":"Baltimore\/Washington International Thurgood Marshall Airport","city_y":"Baltimore","country_y":"United States","destinationLat":39.1757283333,"destinationLon":-76.6689911111,"distance":77.9470935466},{"flightNumber":"14968","originIATA":"DFW","destinationIATA":"PER","airline":"American","aircraftID":"5CYPC0JHAPY679079","year":"2015","month":"02","age":38,"passengerCount":10,"name":"Embraer EMB.120 Brasilia","aircraftType":"EM2","originName":"Dallas-Fort Worth International Airport","city_x":"Dallas","country_x":"United States","originLat":32.8972330556,"originLon":-97.0376947222,"destinationName":"Perth International Airport","city_y":"Perth","country_y":"Australia","destinationLat":-31.9402999878,"destinationLon":115.9670028687,"distance":222.6542316844},{"flightNumber":"18506","originIATA":"MAN","destinationIATA":"LGA","airline":"Qatar","aircraftID":"9MD7XD0G3GHM52297","year":"2015","month":"02","age":49,"passengerCount":12,"name":"Airbus A350","aircraftType":"350","originName":"Manchester Airport","city_x":"Manchester","country_x":"United Kingdom","originLat":53.3536987305,"originLon":-2.2749500275,"destinationName":"LaGuardia Airport","city_y":"New York","country_y":"United States","destinationLat":40.77725,"destinationLon":-73.8726111111,"distance":72.6938246023},{"flightNumber":"30308","originIATA":"IST","destinationIATA":"ICN","airline":"Emirates","aircraftID":"KWRZ73UT0TW670471","year":"2015","month":"02","age":40,"passengerCount":12,"name":"Douglas DC-10-10","aircraftType":"D1X","originName":"Istanbul Atat\u00fcrk Airport","city_x":"Istanbul","country_x":"Turkey","originLat":41.275333,"originLon":28.752,"destinationName":"Incheon International Airport","city_y":"Seoul","country_y":"South Korea","destinationLat":37.4691009521,"destinationLon":126.4509963989,"distance":97.7731113331},{"flightNumber":"32810","originIATA":"KMG","destinationIATA":"BKK","airline":"Qatar","aircraftID":"PH7VZJEWMFK351596","year":"2015","month":"02","age":58,"passengerCount":25,"name":"Boeing 737 MAX 8","aircraftType":"7M8","originName":"Kunming Changshui International Airport","city_x":"Kunming","country_x":"China","originLat":24.9923992157,"originLon":102.7440032959,"destinationName":"Suvarnabhumi Airport","city_y":"Bangkok","country_y":"Thailand","destinationLat":13.6810998917,"destinationLon":100.7470016479,"distance":11.4862312348},{"flightNumber":"36759","originIATA":"IAD","destinationIATA":"TPE","airline":"Emirates","aircraftID":"315T75RLPGDA41480","year":"2015","month":"02","age":44,"passengerCount":18,"name":"Airbus A310-200","aircraftType":"312","originName":"Washington Dulles International Airport","city_x":"Washington","country_x":"United States","originLat":38.9474444444,"originLon":-77.4599444444,"destinationName":"Taiwan Taoyuan International Airport","city_y":"Taipei","country_y":"Taiwan","destinationLat":25.0776996613,"destinationLon":121.233001709,"distance":199.176446076},{"flightNumber":"38016","originIATA":"CPT","destinationIATA":"DTW","airline":"LATAM","aircraftID":"LAL0Z40KGRMX57711","year":"2015","month":"02","age":48,"passengerCount":13,"name":"De Havilland DH.104 Dove","aircraftType":"DHD","originName":"Cape Town International Airport","city_x":"Cape Town","country_x":"South Africa","originLat":-33.9648017883,"originLon":18.6016998291,"destinationName":"Detroit Metropolitan Wayne County Airport","city_y":"Detroit","country_y":"United States","destinationLat":42.2124444444,"destinationLon":-83.3533888889,"distance":127.2706288155},{"flightNumber":"38442","originIATA":"TXL","destinationIATA":"OOL","airline":"LATAM","aircraftID":"8ZKJ454PBPAL20794","year":"2015","month":"02","age":58,"passengerCount":9,"name":"Canadair Regional Jet 700","aircraftType":"CR7","originName":"Berlin-Tegel International Airport","city_x":"Berlin","country_x":"Germany","originLat":52.5597000122,"originLon":13.2876996994,"destinationName":"Gold Coast Airport","city_y":"Coolangatta","country_y":"Australia","destinationLat":-28.1644001007,"destinationLon":153.505004883,"distance":161.7939214309},{"flightNumber":"44086","originIATA":"KRT","destinationIATA":"SSA","airline":"Iberia","aircraftID":"E9LLGETVBXM514442","year":"2015","month":"02","age":56,"passengerCount":22,"name":"Boeing 737-800","aircraftType":"738","originName":"Khartoum International Airport","city_x":"Khartoum","country_x":"Sudan","originLat":15.590333,"originLon":32.553,"destinationName":"Deputado Lu\u00eds Eduardo Magalh\u00e3es International Airport","city_y":"Salvador","country_y":"Brazil","destinationLat":-12.9086112976,"destinationLon":-38.3224983215,"distance":76.3906151854},{"flightNumber":"47023","originIATA":"PHX","destinationIATA":"PTY","airline":"LATAM","aircraftID":"NMFKYYTTFCSW26848","year":"2015","month":"02","age":54,"passengerCount":12,"name":"Boeing 787-9","aircraftType":"789","originName":"Phoenix Sky Harbor International Airport","city_x":"Phoenix","country_x":"United States","originLat":33.4342777778,"originLon":-112.0115833333,"destinationName":"Tocumen International Airport","city_y":"Panama City","country_y":"Panama","destinationLat":9.0713596344,"destinationLon":-79.3834991455,"distance":40.7203101441},{"flightNumber":"50835","originIATA":"LIS","destinationIATA":"FLN","airline":"LATAM","aircraftID":"Z17BK5CZ0XWW55801","year":"2015","month":"02","age":50,"passengerCount":16,"name":"De Havilland Canada DHC-8-200 Dash 8 \/ 8Q","aircraftType":"DH2","originName":"Lisbon Portela Airport","city_x":"Lisbon","country_x":"Portugal","originLat":38.7812995911,"originLon":-9.1359195709,"destinationName":"Herc\u00edlio Luz International Airport","city_y":"Florianopolis","country_y":"Brazil","destinationLat":-27.6702785492,"destinationLon":-48.5525016785,"distance":77.2624047152},{"flightNumber":"54675","originIATA":"SIN","destinationIATA":"EBB","airline":"Emirates","aircraftID":"WXBH0V75R0AF70127","year":"2015","month":"02","age":49,"passengerCount":21,"name":"Airbus A340-300","aircraftType":"343","originName":"Singapore Changi Airport","city_x":"Singapore","country_x":"Singapore","originLat":1.3501900434,"originLon":103.9940032959,"destinationName":"Entebbe International Airport","city_y":"Entebbe","country_y":"Uganda","destinationLat":0.0423859991,"destinationLon":32.4435005188,"distance":71.5624538363},{"flightNumber":"54751","originIATA":"CBR","destinationIATA":"NTL","airline":"LATAM","aircraftID":"U69KZFFKXBCK93759","year":"2015","month":"02","age":75,"passengerCount":6,"name":"Boeing 747","aircraftType":"747","originName":"Canberra International Airport","city_x":"Canberra","country_x":"Australia","originLat":-35.3069000244,"originLon":149.1950073242,"destinationName":"Newcastle Airport","city_y":"Newcastle","country_y":"Australia","destinationLat":-32.7949981689,"destinationLon":151.8339996338,"distance":3.6433406843},{"flightNumber":"55805","originIATA":"KMG","destinationIATA":"POM","airline":"Iberia","aircraftID":"WUE5YPSXAVK231385","year":"2015","month":"02","age":38,"passengerCount":6,"name":"Boeing 757-300","aircraftType":"753","originName":"Kunming Changshui International Airport","city_x":"Kunming","country_x":"China","originLat":24.9923992157,"originLon":102.7440032959,"destinationName":"Port Moresby Jacksons International Airport","city_y":"Port Moresby","country_y":"Papua New Guinea","destinationLat":-9.4433803558,"destinationLon":147.2200012207,"distance":56.2488871544},{"flightNumber":"56703","originIATA":"AKL","destinationIATA":"PHL","airline":"Iberia","aircraftID":"79DRYAE98AEL77014","year":"2015","month":"02","age":56,"passengerCount":15,"name":"Boeing 747-200","aircraftType":"742","originName":"Auckland International Airport","city_x":"Auckland","country_x":"New Zealand","originLat":-37.0080986023,"originLon":174.7920074463,"destinationName":"Philadelphia International Airport","city_y":"Philadelphia","country_y":"United States","destinationLat":39.8720838889,"destinationLon":-75.2406630556,"distance":261.5853565821},{"flightNumber":"63974","originIATA":"EWR","destinationIATA":"POM","airline":"Iberia","aircraftID":"5GABRTCC5MV095011","year":"2015","month":"02","age":61,"passengerCount":17,"name":"Antonov An-32","aircraftType":"A32","originName":"Newark Liberty International Airport","city_x":"Newark","country_x":"United States","originLat":40.6924798333,"originLon":-74.1686867778,"destinationName":"Port Moresby Jacksons International Airport","city_y":"Port Moresby","country_y":"Papua New Guinea","destinationLat":-9.4433803558,"destinationLon":147.2200012207,"distance":226.9946159066},{"flightNumber":"64863","originIATA":"DMK","destinationIATA":"SLC","airline":"Iberia","aircraftID":"STF18U5162XK37557","year":"2015","month":"02","age":54,"passengerCount":18,"name":"Boeing 737-400","aircraftType":"734","originName":"Don Mueang International Airport","city_x":"Bangkok","country_x":"Thailand","originLat":13.9125995636,"originLon":100.6070022583,"destinationName":"Salt Lake City International Airport","city_y":"Salt Lake City","country_y":"United States","destinationLat":40.7883933333,"destinationLon":-111.9777733333,"distance":214.276912205},{"flightNumber":"71771","originIATA":"ACC","destinationIATA":"MAN","airline":"British Airways","aircraftID":"ZZ7KSDLU06R422022","year":"2015","month":"02","age":53,"passengerCount":35,"name":"Canadair Regional Jet 705","aircraftType":"CRA","originName":"Kotoka International Airport","city_x":"Accra","country_x":"Ghana","originLat":5.6051898003,"originLon":-0.1667860001,"destinationName":"Manchester Airport","city_y":"Manchester","country_y":"United Kingdom","destinationLat":53.3536987305,"destinationLon":-2.2749500275,"distance":47.7950254799},{"flightNumber":"71960","originIATA":"NAN","destinationIATA":"OOL","airline":"British Airways","aircraftID":"Y2DZ888VG8FF84003","year":"2015","month":"02","age":43,"passengerCount":12,"name":"Airbus A310-200","aircraftType":"312","originName":"Nadi International Airport","city_x":"Nandi","country_x":"Fiji","originLat":-17.755399704,"originLon":177.4429931641,"destinationName":"Gold Coast Airport","city_y":"Coolangatta","country_y":"Australia","destinationLat":-28.1644001007,"destinationLon":153.505004883,"distance":26.1031525338},{"flightNumber":"72920","originIATA":"CNS","destinationIATA":"YVR","airline":"British Airways","aircraftID":"SH3Y87J5ZGJZ10489","year":"2015","month":"02","age":47,"passengerCount":31,"name":"Antonov An-158","aircraftType":"A58","originName":"Cairns International Airport","city_x":"Cairns","country_x":"Australia","originLat":-16.885799408,"originLon":145.755004883,"destinationName":"Vancouver International Airport","city_y":"Vancouver","country_y":"Canada","destinationLat":49.193901062,"destinationLon":-123.1839981079,"distance":276.9381052581},{"flightNumber":"73487","originIATA":"MIR","destinationIATA":"TUN","airline":"British Airways","aircraftID":"ULU4T0CNR1S248223","year":"2015","month":"02","age":39,"passengerCount":8,"name":"Antonov An-158","aircraftType":"A58","originName":"Monastir Habib Bourguiba International Airport","city_x":"Monastir","country_x":"Tunisia","originLat":35.7580986023,"originLon":10.754699707,"destinationName":"Tunis Carthage International Airport","city_y":"Tunis","country_y":"Tunisia","destinationLat":36.8510017395,"destinationLon":10.2271995544,"distance":1.2135459111},{"flightNumber":"78898","originIATA":"REC","destinationIATA":"CUN","airline":"British Airways","aircraftID":"81GA3YNR5XVB56139","year":"2015","month":"02","age":55,"passengerCount":17,"name":"Boeing 767-200","aircraftType":"762","originName":"Guararapes - Gilberto Freyre International Airport","city_x":"Recife","country_x":"Brazil","originLat":-8.1264896393,"originLon":-34.9235992432,"destinationName":"Canc\u00fan International Airport","city_y":"Cancun","country_y":"Mexico","destinationLat":21.0365009308,"destinationLon":-86.8770980835,"distance":59.5789061727},{"flightNumber":"79407","originIATA":"EZE","destinationIATA":"MCY","airline":"Emirates","aircraftID":"P25LHTCY90X861124","year":"2015","month":"02","age":50,"passengerCount":19,"name":"Boeing 787-10","aircraftType":"781","originName":"Ministro Pistarini International Airport","city_x":"Buenos Aires","country_x":"Argentina","originLat":-34.8222,"originLon":-58.5358,"destinationName":"Sunshine Coast Airport","city_y":"Maroochydore","country_y":"Australia","destinationLat":-26.6033000946,"destinationLon":153.091003418,"distance":211.7863410151},{"flightNumber":"83868","originIATA":"NSN","destinationIATA":"HBA","airline":"Emirates","aircraftID":"FD7MNJ30B0PL56662","year":"2015","month":"02","age":50,"passengerCount":18,"name":"McDonnell Douglas MD11","aircraftType":"M11","originName":"Nelson Airport","city_x":"Nelson","country_x":"New Zealand","originLat":-41.2983016968,"originLon":173.220993042,"destinationName":"Hobart International Airport","city_y":"Hobart","country_y":"Australia","destinationLat":-42.836101532,"destinationLon":147.509994507,"distance":25.7569461311},{"flightNumber":"84849","originIATA":"ARN","destinationIATA":"HND","airline":"LATAM","aircraftID":"UMY2WHB80DA632165","year":"2015","month":"02","age":66,"passengerCount":12,"name":"Tupolev Tu-204","aircraftType":"T20","originName":"Stockholm Arlanda Airport","city_x":"Stockholm","country_x":"Sweden","originLat":59.6519012451,"originLon":17.9186000824,"destinationName":"Haneda Airport","city_y":"Tokyo","country_y":"Japan","destinationLat":35.5522994995,"destinationLon":139.7799987793,"distance":124.2215411942},{"flightNumber":"92006","originIATA":"LOS","destinationIATA":"PLZ","airline":"Emirates","aircraftID":"ZLC62186P3RK14408","year":"2015","month":"02","age":48,"passengerCount":13,"name":"Airbus A330-900neo","aircraftType":"339","originName":"Murtala Muhammed International Airport","city_x":"Lagos","country_x":"Nigeria","originLat":6.5773701668,"originLon":3.321160078,"destinationName":"Port Elizabeth International Airport","city_y":"Port Elizabeth","country_y":"South Africa","destinationLat":-33.9849014282,"destinationLon":25.6173000336,"distance":46.2862369811},{"flightNumber":"95665","originIATA":"ATL","destinationIATA":"LAX","airline":"Emirates","aircraftID":"31595VA2VSY577277","year":"2015","month":"02","age":45,"passengerCount":24,"name":"Lockheed L-182 \/ 282 \/ 382 (L-100) Hercules","aircraftType":"LOH","originName":"Hartsfield\u2013Jackson Atlanta International Airport","city_x":"Atlanta","country_x":"United States","originLat":33.6366996111,"originLon":-84.427864,"destinationName":"Los Angeles International Airport","city_y":"Los Angeles","country_y":"United States","destinationLat":33.9424963889,"destinationLon":-118.4080486111,"distance":33.9815605568},{"flightNumber":"96678","originIATA":"MDW","destinationIATA":"BCN","airline":"LATAM","aircraftID":"1R7V4KMEDFAF78828","year":"2015","month":"02","age":62,"passengerCount":15,"name":"McDonnell Douglas MD83","aircraftType":"M83","originName":"Midway International Airport","city_x":"Chicago","country_x":"United States","originLat":41.7859722222,"originLon":-87.7524166667,"destinationName":"Barcelona\u2013El Prat Airport","city_y":"Barcelona","country_y":"Spain","destinationLat":41.2971000671,"destinationLon":2.0784599781,"distance":89.8322068901},{"flightNumber":"13569","originIATA":"DEN","destinationIATA":"SLC","airline":"British Airways","aircraftID":"8ZMBJHSUH2MN61710","year":"2015","month":"03","age":44,"passengerCount":17,"name":"Canadair Regional Jet 705","aircraftType":"CRA","originName":"Denver International Airport","city_x":"Denver","country_x":"United States","originLat":39.8616666667,"originLon":-104.6731666667,"destinationName":"Salt Lake City International Airport","city_y":"Salt Lake City","country_y":"United States","destinationLat":40.7883933333,"destinationLon":-111.9777733333,"distance":7.3631583488},{"flightNumber":"13821","originIATA":"IAH","destinationIATA":"ZRH","airline":"British Airways","aircraftID":"S1LU7DDMM8B967780","year":"2015","month":"03","age":46,"passengerCount":21,"name":"Antonov An-12","aircraftType":"ANF","originName":"George Bush Intercontinental Houston Airport","city_x":"Houston","country_x":"United States","originLat":29.9844352778,"originLon":-95.3414425,"destinationName":"Z\u00fcrich Airport","city_y":"Zurich","country_y":"Switzerland","destinationLat":47.4646987915,"destinationLon":8.5491695404,"distance":105.3509320445},{"flightNumber":"20564","originIATA":"CUN","destinationIATA":"SHA","airline":"Iberia","aircraftID":"DZJS3JRWA9SC59294","year":"2015","month":"03","age":47,"passengerCount":11,"name":"Yakovlev Yak-40","aircraftType":"YK4","originName":"Canc\u00fan International Airport","city_x":"Cancun","country_x":"Mexico","originLat":21.0365009308,"originLon":-86.8770980835,"destinationName":"Shanghai Hongqiao International Airport","city_y":"Shanghai","country_y":"China","destinationLat":31.1979007721,"destinationLon":121.3359985352,"distance":208.4609019703},{"flightNumber":"21971","originIATA":"CNS","destinationIATA":"DME","airline":"American","aircraftID":"98456PW8N3HV37016","year":"2015","month":"03","age":52,"passengerCount":20,"name":"Airbus A318","aircraftType":"318","originName":"Cairns International Airport","city_x":"Cairns","country_x":"Australia","originLat":-16.885799408,"originLon":145.755004883,"destinationName":"Moscow Domodedovo Airport","city_y":"Moscow","country_y":"Russia","destinationLat":55.4087982178,"destinationLon":37.9062995911,"distance":129.837791413},{"flightNumber":"26043","originIATA":"SFO","destinationIATA":"STN","airline":"British Airways","aircraftID":"NKGLD23L22Z482998","year":"2015","month":"03","age":49,"passengerCount":13,"name":"Boeing 737-100","aircraftType":"731","originName":"San Francisco International Airport","city_x":"San Francisco","country_x":"United States","originLat":37.6188055556,"originLon":-122.3754166667,"destinationName":"London Stansted Airport","city_y":"London","country_y":"United Kingdom","destinationLat":51.8849983215,"destinationLon":0.2349999994,"distance":123.4375896195},{"flightNumber":"27753","originIATA":"ABV","destinationIATA":"NAN","airline":"American","aircraftID":"F21Z7E16A6WB10008","year":"2015","month":"03","age":47,"passengerCount":16,"name":"Douglas DC-10-30","aircraftType":"D1Y","originName":"Nnamdi Azikiwe International Airport","city_x":"Abuja","country_x":"Nigeria","originLat":9.0067901611,"originLon":7.2631697655,"destinationName":"Nadi International Airport","city_y":"Nandi","country_y":"Fiji","destinationLat":-17.755399704,"destinationLon":177.4429931641,"distance":172.2712602216},{"flightNumber":"28987","originIATA":"KRT","destinationIATA":"CBR","airline":"Emirates","aircraftID":"FZ1TVBFCZBTN18086","year":"2015","month":"03","age":48,"passengerCount":19,"name":"Boeing 747SP","aircraftType":"74L","originName":"Khartoum International Airport","city_x":"Khartoum","country_x":"Sudan","originLat":15.590333,"originLon":32.553,"destinationName":"Canberra International Airport","city_y":"Canberra","country_y":"Australia","destinationLat":-35.3069000244,"destinationLon":149.1950073242,"distance":127.2630590633},{"flightNumber":"35528","originIATA":"ZRH","destinationIATA":"MIA","airline":"Qatar","aircraftID":"W9UNGWFK6FD729780","year":"2015","month":"03","age":49,"passengerCount":15,"name":"Boeing 737 MAX 7","aircraftType":"7M7","originName":"Z\u00fcrich Airport","city_x":"Zurich","country_x":"Switzerland","originLat":47.4646987915,"originLon":8.5491695404,"destinationName":"Miami International Airport","city_y":"Miami","country_y":"United States","destinationLat":25.7953611111,"destinationLon":-80.2901158333,"distance":91.4438561152},{"flightNumber":"42676","originIATA":"RUN","destinationIATA":"MXP","airline":"American","aircraftID":"JUJN7UG65EBB20900","year":"2015","month":"03","age":54,"passengerCount":20,"name":"Airbus A319","aircraftType":"319","originName":"Roland Garros Airport","city_x":"St.-denis","country_x":"Reunion","originLat":-20.8871002197,"originLon":55.5102996826,"destinationName":"Milan\u2013Malpensa Airport","city_y":"Milano","country_y":"Italy","destinationLat":45.6305999756,"destinationLon":8.7281103134,"distance":81.3214466266},{"flightNumber":"43522","originIATA":"PMI","destinationIATA":"DXB","airline":"Qatar","aircraftID":"AHWH7VHMZJNN49093","year":"2015","month":"03","age":52,"passengerCount":22,"name":"Airbus A319neo","aircraftType":"31N","originName":"Palma De Mallorca Airport","city_x":"Palma de Mallorca","country_x":"Spain","originLat":39.551700592,"originLon":2.7388100624,"destinationName":"Dubai International Airport","city_y":"Dubai","country_y":"United Arab Emirates","destinationLat":25.2527999878,"destinationLon":55.3643989563,"distance":54.5335783249},{"flightNumber":"44834","originIATA":"SGN","destinationIATA":"SDU","airline":"LATAM","aircraftID":"9JFW1ZNX3FP642051","year":"2015","month":"03","age":45,"passengerCount":14,"name":"Canadair Regional Jet 100","aircraftType":"CR1","originName":"Tan Son Nhat International Airport","city_x":"Ho Chi Minh City","country_x":"Vietnam","originLat":10.8187999725,"originLon":106.652000427,"destinationName":"Santos Dumont Airport","city_y":"Rio De Janeiro","country_y":"Brazil","destinationLat":-22.9104995728,"destinationLon":-43.1631011963,"distance":153.5650686915},{"flightNumber":"47941","originIATA":"DRW","destinationIATA":"CAN","airline":"Iberia","aircraftID":"BV7D0WGPA3G462649","year":"2015","month":"03","age":48,"passengerCount":19,"name":"Airbus A350","aircraftType":"350","originName":"Darwin International Airport","city_x":"Darwin","country_x":"Australia","originLat":-12.4146995544,"originLon":130.8769989014,"destinationName":"Guangzhou Baiyun International Airport","city_y":"Guangzhou","country_y":"China","destinationLat":23.3924007416,"destinationLon":113.2990036011,"distance":39.8890254379},{"flightNumber":"50552","originIATA":"CUN","destinationIATA":"DUD","airline":"British Airways","aircraftID":"RSN2G6TETWU717362","year":"2015","month":"03","age":62,"passengerCount":8,"name":"McDonnell Douglas MD87","aircraftType":"M87","originName":"Canc\u00fan International Airport","city_x":"Cancun","country_x":"Mexico","originLat":21.0365009308,"originLon":-86.8770980835,"destinationName":"Dunedin Airport","city_y":"Dunedin","country_y":"New Zealand","destinationLat":-45.9281005859,"destinationLon":170.1979980469,"distance":265.6536521615},{"flightNumber":"51806","originIATA":"DXB","destinationIATA":"ACC","airline":"British Airways","aircraftID":"SPHV85NJ5VD531989","year":"2015","month":"03","age":54,"passengerCount":17,"name":"McDonnell Douglas MD80","aircraftType":"M80","originName":"Dubai International Airport","city_x":"Dubai","country_x":"United Arab Emirates","originLat":25.2527999878,"originLon":55.3643989563,"destinationName":"Kotoka International Airport","city_y":"Accra","country_y":"Ghana","destinationLat":5.6051898003,"destinationLon":-0.1667860001,"distance":58.9045082209},{"flightNumber":"52539","originIATA":"BOS","destinationIATA":"CPT","airline":"British Airways","aircraftID":"3PZEP8DAZJGW53982","year":"2015","month":"03","age":57,"passengerCount":22,"name":"Yakovlev Yak-42","aircraftType":"YK2","originName":"Logan International Airport","city_x":"Boston","country_x":"United States","originLat":42.3629444444,"originLon":-71.0063888889,"destinationName":"Cape Town International Airport","city_y":"Cape Town","country_y":"South Africa","destinationLat":-33.9648017883,"destinationLon":18.6016998291,"distance":117.7095340602},{"flightNumber":"56479","originIATA":"AEP","destinationIATA":"CTU","airline":"Qatar","aircraftID":"0WLVGR2J5TCW72389","year":"2015","month":"03","age":59,"passengerCount":12,"name":"Ilyushin IL86","aircraftType":"ILW","originName":"Aeroparque Jorge Newbery","city_x":"Buenos Aires","country_x":"Argentina","originLat":-34.5592,"originLon":-58.4156,"destinationName":"Chengdu Shuangliu International Airport","city_y":"Chengdu","country_y":"China","destinationLat":30.5785007477,"destinationLon":103.9469985962,"distance":174.9415144601},{"flightNumber":"57026","originIATA":"CHC","destinationIATA":"SAW","airline":"American","aircraftID":"WBFYGFZC5APT25873","year":"2015","month":"03","age":42,"passengerCount":14,"name":"Boeing 737 MAX 8","aircraftType":"7M8","originName":"Christchurch International Airport","city_x":"Christchurch","country_x":"New Zealand","originLat":-43.4893989563,"originLon":172.5319976807,"destinationName":"Sabiha G\u00f6k\u00e7en International Airport","city_y":"Istanbul","country_y":"Turkey","destinationLat":40.898601532,"destinationLon":29.3092002869,"distance":166.2350875108},{"flightNumber":"61937","originIATA":"BCN","destinationIATA":"ABJ","airline":"British Airways","aircraftID":"5X50DM5JBRNU78118","year":"2015","month":"03","age":57,"passengerCount":9,"name":"Boeing 747","aircraftType":"747","originName":"Barcelona\u2013El Prat Airport","city_x":"Barcelona","country_x":"Spain","originLat":41.2971000671,"originLon":2.0784599781,"destinationName":"F\u00e9lix-Houphou\u00ebt-Boigny International Airport","city_y":"Abidjan","country_y":"Cote d'Ivoire","destinationLat":5.2613902092,"destinationLon":-3.9262900352,"distance":36.5325800852},{"flightNumber":"63803","originIATA":"GIG","destinationIATA":"CUN","airline":"LATAM","aircraftID":"LVZ1813F2YN247394","year":"2015","month":"03","age":56,"passengerCount":20,"name":"De Havilland Canada DHC-8-200 Dash 8 \/ 8Q","aircraftType":"DH2","originName":"Rio de Janeiro\u2013Gale\u00e3o International Airport","city_x":"Rio De Janeiro","country_x":"Brazil","originLat":-22.8099994659,"originLon":-43.2505569458,"destinationName":"Canc\u00fan International Airport","city_y":"Cancun","country_y":"Mexico","destinationLat":21.0365009308,"destinationLon":-86.8770980835,"distance":61.852976393},{"flightNumber":"65942","originIATA":"ASP","destinationIATA":"BCN","airline":"American","aircraftID":"PDH2254AVNGH55208","year":"2015","month":"03","age":43,"passengerCount":16,"name":"McDonnell Douglas MD83","aircraftType":"M83","originName":"Alice Springs Airport","city_x":"Alice Springs","country_x":"Australia","originLat":-23.8066997528,"originLon":133.9019927979,"destinationName":"Barcelona\u2013El Prat Airport","city_y":"Barcelona","country_y":"Spain","destinationLat":41.2971000671,"destinationLon":2.0784599781,"distance":147.0236326448},{"flightNumber":"70171","originIATA":"LHR","destinationIATA":"HKG","airline":"British Airways","aircraftID":"0NNFPJ8PR6LE23733","year":"2015","month":"03","age":52,"passengerCount":6,"name":"Antonov An-26","aircraftType":"A26","originName":"Heathrow Airport","city_x":"London","country_x":"United Kingdom","originLat":51.4706001282,"originLon":-0.4619410038,"destinationName":"Hong Kong International Airport","city_y":"Hong Kong","country_y":"Hong Kong","destinationLat":22.3089008331,"destinationLon":113.915000916,"distance":118.0359671825},{"flightNumber":"70840","originIATA":"CDG","destinationIATA":"DUR","airline":"Emirates","aircraftID":"E1PR7AYHHSKH80788","year":"2015","month":"03","age":57,"passengerCount":17,"name":"Douglas DC-10-10","aircraftType":"D1X","originName":"Charles de Gaulle International Airport","city_x":"Paris","country_x":"France","originLat":49.0127983093,"originLon":2.5499999523,"destinationName":"King Shaka International Airport","city_y":"Durban","country_y":"South Africa","destinationLat":-29.6144444444,"destinationLon":31.1197222222,"distance":83.6568726025},{"flightNumber":"76544","originIATA":"AEP","destinationIATA":"GRU","airline":"British Airways","aircraftID":"DHZSXBCPM1M279066","year":"2015","month":"03","age":46,"passengerCount":18,"name":"Boeing 757-300","aircraftType":"753","originName":"Aeroparque Jorge Newbery","city_x":"Buenos Aires","country_x":"Argentina","originLat":-34.5592,"originLon":-58.4156,"destinationName":"S\u00e3o Paulo\u2013Guarulhos International Airport","city_y":"Sao Paulo","country_y":"Brazil","destinationLat":-23.4355564117,"destinationLon":-46.4730567932,"distance":16.3205326177},{"flightNumber":"83273","originIATA":"TSV","destinationIATA":"DEL","airline":"Emirates","aircraftID":"MJ3US5TVMVA543766","year":"2015","month":"03","age":52,"passengerCount":16,"name":"Airbus A330","aircraftType":"330","originName":"Townsville Airport","city_x":"Townsville","country_x":"Australia","originLat":-19.2525005341,"originLon":146.7649993896,"destinationName":"Indira Gandhi International Airport","city_y":"Delhi","country_y":"India","destinationLat":28.5664997101,"destinationLon":77.1031036377,"distance":84.4951862777},{"flightNumber":"85714","originIATA":"MEX","destinationIATA":"REC","airline":"LATAM","aircraftID":"RFLHXNKT1BSK18291","year":"2015","month":"03","age":47,"passengerCount":8,"name":"Douglas DC-6","aircraftType":"D6F","originName":"Mexico City International Airport","city_x":"Mexico City","country_x":"Mexico","originLat":19.4363002777,"originLon":-99.0720977783,"destinationName":"Guararapes - Gilberto Freyre International Airport","city_y":"Recife","country_y":"Brazil","destinationLat":-8.1264896393,"destinationLon":-34.9235992432,"distance":69.8193186182},{"flightNumber":"86924","originIATA":"ICN","destinationIATA":"EWR","airline":"American","aircraftID":"SXYR6LXYZ0XB35625","year":"2015","month":"03","age":50,"passengerCount":25,"name":"Boeing 737-100","aircraftType":"731","originName":"Incheon International Airport","city_x":"Seoul","country_x":"South Korea","originLat":37.4691009521,"originLon":126.4509963989,"destinationName":"Newark Liberty International Airport","city_y":"Newark","country_y":"United States","destinationLat":40.6924798333,"destinationLon":-74.1686867778,"distance":200.6455767001},{"flightNumber":"87054","originIATA":"AGA","destinationIATA":"ACC","airline":"Iberia","aircraftID":"CWEEE2NXRLER30772","year":"2015","month":"03","age":47,"passengerCount":8,"name":"Boeing 737-200","aircraftType":"732","originName":"Agadir\u2013Al Massira Airport","city_x":"Agadir","country_x":"Morocco","originLat":30.3250007629,"originLon":-9.413069725,"destinationName":"Kotoka International Airport","city_y":"Accra","country_y":"Ghana","destinationLat":5.6051898003,"destinationLon":-0.1667860001,"distance":26.3924765179},{"flightNumber":"88286","originIATA":"BEL","destinationIATA":"SHA","airline":"British Airways","aircraftID":"PYYSF40LBNN059128","year":"2015","month":"03","age":54,"passengerCount":7,"name":"Boeing 757-200","aircraftType":"752","originName":"Val de Cans International Airport","city_x":"Belem","country_x":"Brazil","originLat":-1.3792500496,"originLon":-48.4762992859,"destinationName":"Shanghai Hongqiao International Airport","city_y":"Shanghai","country_y":"China","destinationLat":31.1979007721,"destinationLon":121.3359985352,"distance":172.9088986922},{"flightNumber":"88636","originIATA":"BKK","destinationIATA":"POA","airline":"Emirates","aircraftID":"TZBUCUC4R6SF29289","year":"2015","month":"03","age":58,"passengerCount":25,"name":"Tupolev Tu-134","aircraftType":"TU3","originName":"Suvarnabhumi Airport","city_x":"Bangkok","country_x":"Thailand","originLat":13.6810998917,"originLon":100.7470016479,"destinationName":"Salgado Filho Airport","city_y":"Porto Alegre","country_y":"Brazil","destinationLat":-29.9944000244,"destinationLon":-51.1713981628,"distance":158.0719756755},{"flightNumber":"99115","originIATA":"DXB","destinationIATA":"MNL","airline":"Qatar","aircraftID":"U6EGNKAMV6SR29560","year":"2015","month":"03","age":45,"passengerCount":11,"name":"Boeing 787-9","aircraftType":"789","originName":"Dubai International Airport","city_x":"Dubai","country_x":"United Arab Emirates","originLat":25.2527999878,"originLon":55.3643989563,"destinationName":"Ninoy Aquino International Airport","city_y":"Manila","country_y":"Philippines","destinationLat":14.508600235,"destinationLon":121.019996643,"distance":66.5289060178},{"flightNumber":"15403","originIATA":"LIS","destinationIATA":"LAS","airline":"Emirates","aircraftID":"A438MK3BMGWM89968","year":"2015","month":"04","age":55,"passengerCount":9,"name":"Canadair Regional Jet 900","aircraftType":"CR9","originName":"Lisbon Portela Airport","city_x":"Lisbon","country_x":"Portugal","originLat":38.7812995911,"originLon":-9.1359195709,"destinationName":"McCarran International Airport","city_y":"Las Vegas","country_y":"United States","destinationLat":36.0800438889,"destinationLon":-115.1522347222,"distance":106.0507230557},{"flightNumber":"16043","originIATA":"CKG","destinationIATA":"ABJ","airline":"American","aircraftID":"90SZDC5X34KV91882","year":"2015","month":"04","age":62,"passengerCount":7,"name":"Airbus A340","aircraftType":"340","originName":"Chongqing Jiangbei International Airport","city_x":"Chongqing","country_x":"China","originLat":29.7192001343,"originLon":106.641998291,"destinationName":"F\u00e9lix-Houphou\u00ebt-Boigny International Airport","city_y":"Abidjan","country_y":"Cote d'Ivoire","destinationLat":5.2613902092,"destinationLon":-3.9262900352,"distance":113.2410298863},{"flightNumber":"17001","originIATA":"SYD","destinationIATA":"BEL","airline":"LATAM","aircraftID":"G9CD7CX2E5PL64579","year":"2015","month":"04","age":45,"passengerCount":10,"name":"Airbus A340-300","aircraftType":"343","originName":"Sydney Airport","city_x":"Sydney","country_x":"Australia","originLat":-33.9460983276,"originLon":151.1770019531,"destinationName":"Val de Cans International Airport","city_y":"Belem","country_y":"Brazil","destinationLat":-1.3792500496,"destinationLon":-48.4762992859,"distance":202.2919679631},{"flightNumber":"17722","originIATA":"FOR","destinationIATA":"AYT","airline":"Iberia","aircraftID":"4E98DCZCD7WC90625","year":"2015","month":"04","age":59,"passengerCount":13,"name":"Embraer Phenom 300","aircraftType":"EP3","originName":"Pinto Martins International Airport","city_x":"Fortaleza","country_x":"Brazil","originLat":-3.7762799263,"originLon":-38.5326004028,"destinationName":"Antalya Airport","city_y":"Antalya","country_y":"Turkey","destinationLat":36.8987007141,"destinationLon":30.8005008698,"distance":80.3836611643},{"flightNumber":"20462","originIATA":"SYD","destinationIATA":"ATH","airline":"Qatar","aircraftID":"C3TSPS1MX2ZN84008","year":"2015","month":"04","age":55,"passengerCount":16,"name":"Canadair Challenger","aircraftType":"CCJ","originName":"Sydney Airport","city_x":"Sydney","country_x":"Australia","originLat":-33.9460983276,"originLon":151.1770019531,"destinationName":"Athens International Airport","city_y":"Athens","country_y":"Greece","destinationLat":37.9364013672,"destinationLon":23.9444999695,"distance":146.1341962833},{"flightNumber":"29661","originIATA":"MNL","destinationIATA":"PVG","airline":"Iberia","aircraftID":"4S8CYZBNVBES27648","year":"2015","month":"04","age":42,"passengerCount":16,"name":"McDonnell Douglas MD90","aircraftType":"M90","originName":"Ninoy Aquino International Airport","city_x":"Manila","country_x":"Philippines","originLat":14.508600235,"originLon":121.019996643,"destinationName":"Shanghai Pudong International Airport","city_y":"Shanghai","country_y":"China","destinationLat":31.1434001923,"destinationLon":121.8050003052,"distance":16.653311994},{"flightNumber":"31443","originIATA":"DME","destinationIATA":"KMG","airline":"Iberia","aircraftID":"FW1RB44NM7GD16680","year":"2015","month":"04","age":44,"passengerCount":19,"name":"Embraer Phenom 300","aircraftType":"EP3","originName":"Moscow Domodedovo Airport","city_x":"Moscow","country_x":"Russia","originLat":55.4087982178,"originLon":37.9062995911,"destinationName":"Kunming Changshui International Airport","city_y":"Kunming","country_y":"China","destinationLat":24.9923992157,"destinationLon":102.7440032959,"distance":71.6176315579},{"flightNumber":"44985","originIATA":"DLA","destinationIATA":"CGH","airline":"LATAM","aircraftID":"SVXVVHHV3TV044930","year":"2015","month":"04","age":51,"passengerCount":18,"name":"Airbus A318","aircraftType":"318","originName":"Douala International Airport","city_x":"Douala","country_x":"Cameroon","originLat":4.0060801506,"originLon":9.7194795609,"destinationName":"S\u00e3o Paulo\u2013Congonhas Airport","city_y":"Sao Paulo","country_y":"Brazil","destinationLat":-23.6261100769,"destinationLon":-46.6563873291,"distance":62.7835671523},{"flightNumber":"45246","originIATA":"KTA","destinationIATA":"GIG","airline":"British Airways","aircraftID":"J95CHUCZG5MS10935","year":"2015","month":"04","age":56,"passengerCount":16,"name":"Antonov An-28","aircraftType":"A28","originName":"Karratha Airport","city_x":"Karratha","country_x":"Australia","originLat":-20.7122001648,"originLon":116.773002625,"destinationName":"Rio de Janeiro\u2013Gale\u00e3o International Airport","city_y":"Rio De Janeiro","country_y":"Brazil","destinationLat":-22.8099994659,"destinationLon":-43.2505569458,"distance":160.0373093363},{"flightNumber":"47856","originIATA":"KRT","destinationIATA":"LAS","airline":"Qatar","aircraftID":"GGSKTN4K7YUL73480","year":"2015","month":"04","age":63,"passengerCount":19,"name":"Boeing 757","aircraftType":"757","originName":"Khartoum International Airport","city_x":"Khartoum","country_x":"Sudan","originLat":15.590333,"originLon":32.553,"destinationName":"McCarran International Airport","city_y":"Las Vegas","country_y":"United States","destinationLat":36.0800438889,"destinationLon":-115.1522347222,"distance":149.1196318955},{"flightNumber":"50219","originIATA":"MTY","destinationIATA":"FCO","airline":"American","aircraftID":"G0NAJ84UKRRX84956","year":"2015","month":"04","age":44,"passengerCount":9,"name":"Boeing 737-600","aircraftType":"736","originName":"Monterrey International Airport","city_x":"Monterrey","country_x":"Mexico","originLat":25.7784996033,"originLon":-100.107002258,"destinationName":"Leonardo da Vinci\u2013Fiumicino Airport","city_y":"Rome","country_y":"Italy","destinationLat":41.8045005798,"destinationLon":12.2508001328,"distance":113.4949711018},{"flightNumber":"50634","originIATA":"DJE","destinationIATA":"OSL","airline":"Qatar","aircraftID":"E4BZ7N1UVRYY68729","year":"2015","month":"04","age":43,"passengerCount":6,"name":"Boeing 737-500","aircraftType":"735","originName":"Djerba\u2013Zarzis International Airport","city_x":"Djerba","country_x":"Tunisia","originLat":33.875,"originLon":10.7755002975,"destinationName":"Oslo Airport","city_y":" Gardermoen,Oslo","country_y":"Norway","destinationLat":60.193901062,"destinationLon":11.100399971,"distance":26.3209063846},{"flightNumber":"52355","originIATA":"EWR","destinationIATA":"MIR","airline":"LATAM","aircraftID":"Z95GX6SK30E911602","year":"2015","month":"04","age":52,"passengerCount":6,"name":"Embraer 175","aircraftType":"E75","originName":"Newark Liberty International Airport","city_x":"Newark","country_x":"United States","originLat":40.6924798333,"originLon":-74.1686867778,"destinationName":"Monastir Habib Bourguiba International Airport","city_y":"Monastir","country_y":"Tunisia","destinationLat":35.7580986023,"destinationLon":10.754699707,"distance":85.0666191298},{"flightNumber":"52938","originIATA":"MAN","destinationIATA":"IAH","airline":"Iberia","aircraftID":"99RATZ6N0FPY12485","year":"2015","month":"04","age":33,"passengerCount":15,"name":"Embraer EMB.120 Brasilia","aircraftType":"EM2","originName":"Manchester Airport","city_x":"Manchester","country_x":"United Kingdom","originLat":53.3536987305,"originLon":-2.2749500275,"destinationName":"George Bush Intercontinental Houston Airport","city_y":"Houston","country_y":"United States","destinationLat":29.9844352778,"destinationLon":-95.3414425,"distance":95.9556902714},{"flightNumber":"58840","originIATA":"TSV","destinationIATA":"SZX","airline":"Emirates","aircraftID":"SC38FF0VCVN237866","year":"2015","month":"04","age":49,"passengerCount":10,"name":"Boeing 747-300","aircraftType":"743","originName":"Townsville Airport","city_x":"Townsville","country_x":"Australia","originLat":-19.2525005341,"originLon":146.7649993896,"destinationName":"Shenzhen Bao'an International Airport","city_y":"Shenzhen","country_y":"China","destinationLat":22.6392993927,"destinationLon":113.8109970093,"distance":53.2999922513},{"flightNumber":"61433","originIATA":"MEL","destinationIATA":"MCY","airline":"Iberia","aircraftID":"44AL60UWK3NE22377","year":"2015","month":"04","age":42,"passengerCount":13,"name":"Canadair Regional Jet 200","aircraftType":"CR2","originName":"Melbourne Airport","city_x":"Melbourne","country_x":"Australia","originLat":-37.6733016968,"originLon":144.8430023193,"destinationName":"Sunshine Coast Airport","city_y":"Maroochydore","country_y":"Australia","destinationLat":-26.6033000946,"destinationLon":153.091003418,"distance":13.8048707925},{"flightNumber":"75887","originIATA":"PMI","destinationIATA":"GIG","airline":"Qatar","aircraftID":"K2S2KZ6GELFF32866","year":"2015","month":"04","age":51,"passengerCount":24,"name":"Boeing 767-400","aircraftType":"764","originName":"Palma De Mallorca Airport","city_x":"Palma de Mallorca","country_x":"Spain","originLat":39.551700592,"originLon":2.7388100624,"destinationName":"Rio de Janeiro\u2013Gale\u00e3o International Airport","city_y":"Rio De Janeiro","country_y":"Brazil","destinationLat":-22.8099994659,"destinationLon":-43.2505569458,"distance":77.4855051731},{"flightNumber":"76008","originIATA":"DLA","destinationIATA":"DUS","airline":"American","aircraftID":"VPVKV1LBZKN433501","year":"2015","month":"04","age":48,"passengerCount":26,"name":"Ilyushin IL114","aircraftType":"I14","originName":"Douala International Airport","city_x":"Douala","country_x":"Cameroon","originLat":4.0060801506,"originLon":9.7194795609,"destinationName":"D\u00fcsseldorf International Airport","city_y":"Duesseldorf","country_y":"Germany","destinationLat":51.2895011902,"destinationLon":6.7667798996,"distance":47.3755246989},{"flightNumber":"79511","originIATA":"KUL","destinationIATA":"TSV","airline":"British Airways","aircraftID":"ZUZUL7LFZ0LT99269","year":"2015","month":"04","age":52,"passengerCount":28,"name":"Douglas DC-6","aircraftType":"D6F","originName":"Kuala Lumpur International Airport","city_x":"Kuala Lumpur","country_x":"Malaysia","originLat":2.745579958,"originLon":101.7099990845,"destinationName":"Townsville Airport","city_y":"Townsville","country_y":"Australia","destinationLat":-19.2525005341,"destinationLon":146.7649993896,"distance":50.1384941719},{"flightNumber":"81267","originIATA":"JFK","destinationIATA":"SLC","airline":"British Airways","aircraftID":"PV2P6F8XS1FR16874","year":"2015","month":"04","age":44,"passengerCount":26,"name":"McDonnell Douglas MD81","aircraftType":"M81","originName":"John F. Kennedy International Airport","city_x":"New York","country_x":"United States","originLat":40.6399277778,"originLon":-73.7786925,"destinationName":"Salt Lake City International Airport","city_y":"Salt Lake City","country_y":"United States","destinationLat":40.7883933333,"destinationLon":-111.9777733333,"distance":38.1993693473},{"flightNumber":"82852","originIATA":"MCO","destinationIATA":"TUN","airline":"Qatar","aircraftID":"HLV49F87SHNH34848","year":"2015","month":"04","age":54,"passengerCount":19,"name":"Antonov An-32","aircraftType":"A32","originName":"Orlando International Airport","city_x":"Orlando","country_x":"United States","originLat":28.4293888889,"originLon":-81.309,"destinationName":"Tunis Carthage International Airport","city_y":"Tunis","country_y":"Tunisia","destinationLat":36.8510017395,"destinationLon":10.2271995544,"distance":91.9227903834},{"flightNumber":"86501","originIATA":"LGA","destinationIATA":"CAN","airline":"American","aircraftID":"JAN4B3EC58P128978","year":"2015","month":"04","age":60,"passengerCount":12,"name":"Embraer E190-E2","aircraftType":"290","originName":"LaGuardia Airport","city_x":"New York","country_x":"United States","originLat":40.77725,"originLon":-73.8726111111,"destinationName":"Guangzhou Baiyun International Airport","city_y":"Guangzhou","country_y":"China","destinationLat":23.3924007416,"destinationLon":113.2990036011,"distance":187.9772495216},{"flightNumber":"86687","originIATA":"RUN","destinationIATA":"DFW","airline":"British Airways","aircraftID":"5YZWT5BL2TCT88146","year":"2015","month":"04","age":39,"passengerCount":38,"name":"Airbus A318","aircraftType":"318","originName":"Roland Garros Airport","city_x":"St.-denis","country_x":"Reunion","originLat":-20.8871002197,"originLon":55.5102996826,"destinationName":"Dallas-Fort Worth International Airport","city_y":"Dallas","country_y":"United States","destinationLat":32.8972330556,"destinationLon":-97.0376947222,"distance":161.751800926},{"flightNumber":"88753","originIATA":"ABV","destinationIATA":"HEL","airline":"Qatar","aircraftID":"GASYRMANDJVB48564","year":"2015","month":"04","age":52,"passengerCount":13,"name":"De Havilland Canada DHC-8-100 Dash 8 \/ 8Q","aircraftType":"DH1","originName":"Nnamdi Azikiwe International Airport","city_x":"Abuja","country_x":"Nigeria","originLat":9.0067901611,"originLon":7.2631697655,"destinationName":"Helsinki Airport","city_y":"Helsinki","country_y":"Finland","destinationLat":60.317199707,"destinationLon":24.963300705,"distance":54.2775530311},{"flightNumber":"89168","originIATA":"CAI","destinationIATA":"HTI","airline":"Qatar","aircraftID":"V9ZCGZZPX7R790180","year":"2015","month":"04","age":48,"passengerCount":22,"name":"Boeing 737-200","aircraftType":"732","originName":"Cairo International Airport","city_x":"Cairo","country_x":"Egypt","originLat":30.1219005585,"originLon":31.4055995941,"destinationName":"Hamilton Island Airport","city_y":"Hamilton Island","country_y":"Australia","destinationLat":-20.3581008911,"destinationLon":148.95199585,"distance":127.9272676918},{"flightNumber":"89555","originIATA":"ADL","destinationIATA":"HTI","airline":"British Airways","aircraftID":"B69M3MR3VYN073347","year":"2015","month":"04","age":44,"passengerCount":13,"name":"Embraer 190","aircraftType":"E90","originName":"Adelaide International Airport","city_x":"Adelaide","country_x":"Australia","originLat":-34.9449996948,"originLon":138.5310058594,"destinationName":"Hamilton Island Airport","city_y":"Hamilton Island","country_y":"Australia","destinationLat":-20.3581008911,"destinationLon":148.95199585,"distance":17.9269252549},{"flightNumber":"90787","originIATA":"AGA","destinationIATA":"CPH","airline":"Iberia","aircraftID":"DFG49SN8A9VW16218","year":"2015","month":"04","age":51,"passengerCount":45,"name":"Canadair Regional Jet 900","aircraftType":"CR9","originName":"Agadir\u2013Al Massira Airport","city_x":"Agadir","country_x":"Morocco","originLat":30.3250007629,"originLon":-9.413069725,"destinationName":"Copenhagen Airport","city_y":"Copenhagen","country_y":"Denmark","destinationLat":55.6179008484,"destinationLon":12.6560001373,"distance":33.567463999},{"flightNumber":"91899","originIATA":"SDU","destinationIATA":"ARN","airline":"LATAM","aircraftID":"R82REK1A5FJG30227","year":"2015","month":"04","age":38,"passengerCount":10,"name":"De Havilland Canada DHC-8-400 Dash 8Q","aircraftType":"DH4","originName":"Santos Dumont Airport","city_x":"Rio De Janeiro","country_x":"Brazil","originLat":-22.9104995728,"originLon":-43.1631011963,"destinationName":"Stockholm Arlanda Airport","city_y":"Stockholm","country_y":"Sweden","destinationLat":59.6519012451,"destinationLon":17.9186000824,"distance":102.7011404996},{"flightNumber":"92992","originIATA":"LIS","destinationIATA":"AEP","airline":"Qatar","aircraftID":"7GHUNWWS3SPY64916","year":"2015","month":"04","age":29,"passengerCount":14,"name":"Airbus A319","aircraftType":"319","originName":"Lisbon Portela Airport","city_x":"Lisbon","country_x":"Portugal","originLat":38.7812995911,"originLon":-9.1359195709,"destinationName":"Aeroparque Jorge Newbery","city_y":"Buenos Aires","country_y":"Argentina","destinationLat":-34.5592,"destinationLon":-58.4156,"distance":88.3590164243},{"flightNumber":"95523","originIATA":"MDW","destinationIATA":"ATH","airline":"Emirates","aircraftID":"5HVPK3DVW6VG25788","year":"2015","month":"04","age":48,"passengerCount":13,"name":"Boeing 707","aircraftType":"703","originName":"Midway International Airport","city_x":"Chicago","country_x":"United States","originLat":41.7859722222,"originLon":-87.7524166667,"destinationName":"Athens International Airport","city_y":"Athens","country_y":"Greece","destinationLat":37.9364013672,"destinationLon":23.9444999695,"distance":111.7632335869},{"flightNumber":"10039","originIATA":"SHA","destinationIATA":"CAN","airline":"British Airways","aircraftID":"NZEG738A3AUX31751","year":"2015","month":"05","age":39,"passengerCount":7,"name":"Canadair Regional Jet 100","aircraftType":"CR1","originName":"Shanghai Hongqiao International Airport","city_x":"Shanghai","country_x":"China","originLat":31.1979007721,"originLon":121.3359985352,"destinationName":"Guangzhou Baiyun International Airport","city_y":"Guangzhou","country_y":"China","destinationLat":23.3924007416,"destinationLon":113.2990036011,"distance":11.2035315101},{"flightNumber":"10482","originIATA":"CAN","destinationIATA":"IAH","airline":"LATAM","aircraftID":"Z5JGTVUH0LBR33902","year":"2015","month":"05","age":51,"passengerCount":20,"name":"Boeing 747","aircraftType":"747","originName":"Guangzhou Baiyun International Airport","city_x":"Guangzhou","country_x":"China","originLat":23.3924007416,"originLon":113.2990036011,"destinationName":"George Bush Intercontinental Houston Airport","city_y":"Houston","country_y":"United States","destinationLat":29.9844352778,"destinationLon":-95.3414425,"distance":208.7445584167},{"flightNumber":"15344","originIATA":"ASP","destinationIATA":"MEL","airline":"Qatar","aircraftID":"AD6BU9XD3BWG37069","year":"2015","month":"05","age":43,"passengerCount":15,"name":"Boeing 767-200","aircraftType":"762","originName":"Alice Springs Airport","city_x":"Alice Springs","country_x":"Australia","originLat":-23.8066997528,"originLon":133.9019927979,"destinationName":"Melbourne Airport","city_y":"Melbourne","country_y":"Australia","destinationLat":-37.6733016968,"destinationLon":144.8430023193,"distance":17.6631916374},{"flightNumber":"15814","originIATA":"HBA","destinationIATA":"MRU","airline":"Emirates","aircraftID":"U4ZDJ7E8AFW384266","year":"2015","month":"05","age":40,"passengerCount":14,"name":"Embraer RJ135","aircraftType":"ER3","originName":"Hobart International Airport","city_x":"Hobart","country_x":"Australia","originLat":-42.836101532,"originLon":147.509994507,"destinationName":"Sir Seewoosagur Ramgoolam International Airport","city_y":"Plaisance","country_y":"Mauritius","destinationLat":-20.4302005768,"destinationLon":57.6836013794,"distance":92.5786438652},{"flightNumber":"16893","originIATA":"SLC","destinationIATA":"PER","airline":"British Airways","aircraftID":"C8EJ99TDV1HP51828","year":"2015","month":"05","age":57,"passengerCount":30,"name":"McDonnell Douglas MD87","aircraftType":"M87","originName":"Salt Lake City International Airport","city_x":"Salt Lake City","country_x":"United States","originLat":40.7883933333,"originLon":-111.9777733333,"destinationName":"Perth International Airport","city_y":"Perth","country_y":"Australia","destinationLat":-31.9402999878,"destinationLon":115.9670028687,"distance":239.2661359867},{"flightNumber":"18291","originIATA":"GDL","destinationIATA":"SZX","airline":"LATAM","aircraftID":"S39X0W5CP1R617015","year":"2015","month":"05","age":40,"passengerCount":11,"name":"Boeing 737 MAX 9","aircraftType":"7M9","originName":"Guadalajara International Airport","city_x":"Guadalajara","country_x":"Mexico","originLat":20.5217990875,"originLon":-103.3109970093,"destinationName":"Shenzhen Bao'an International Airport","city_y":"Shenzhen","country_y":"China","destinationLat":22.6392993927,"destinationLon":113.8109970093,"distance":217.132319322},{"flightNumber":"18974","originIATA":"IAH","destinationIATA":"REC","airline":"Emirates","aircraftID":"B1789GST3HJU57560","year":"2015","month":"05","age":51,"passengerCount":8,"name":"De Havilland Canada DHC-8-400 Dash 8Q","aircraftType":"DH4","originName":"George Bush Intercontinental Houston Airport","city_x":"Houston","country_x":"United States","originLat":29.9844352778,"originLon":-95.3414425,"destinationName":"Guararapes - Gilberto Freyre International Airport","city_y":"Recife","country_y":"Brazil","destinationLat":-8.1264896393,"destinationLon":-34.9235992432,"distance":71.4335942106},{"flightNumber":"20075","originIATA":"AKL","destinationIATA":"PLZ","airline":"Qatar","aircraftID":"LYM3PWT54LH780842","year":"2015","month":"05","age":35,"passengerCount":7,"name":"Boeing 737","aircraftType":"737","originName":"Auckland International Airport","city_x":"Auckland","country_x":"New Zealand","originLat":-37.0080986023,"originLon":174.7920074463,"destinationName":"Port Elizabeth International Airport","city_y":"Port Elizabeth","country_y":"South Africa","destinationLat":-33.9849014282,"destinationLon":25.6173000336,"distance":149.2053385533},{"flightNumber":"20638","originIATA":"BCN","destinationIATA":"DUR","airline":"Qatar","aircraftID":"VA7VP8JREBNS82493","year":"2015","month":"05","age":58,"passengerCount":20,"name":"Embraer 170","aircraftType":"E70","originName":"Barcelona\u2013El Prat Airport","city_x":"Barcelona","country_x":"Spain","originLat":41.2971000671,"originLon":2.0784599781,"destinationName":"King Shaka International Airport","city_y":"Durban","country_y":"South Africa","destinationLat":-29.6144444444,"destinationLon":31.1197222222,"distance":76.6279456709},{"flightNumber":"22398","originIATA":"DFW","destinationIATA":"PER","airline":"LATAM","aircraftID":"CLVY3PRDU1TH53573","year":"2015","month":"05","age":46,"passengerCount":18,"name":"Boeing 767-400","aircraftType":"764","originName":"Dallas-Fort Worth International Airport","city_x":"Dallas","country_x":"United States","originLat":32.8972330556,"originLon":-97.0376947222,"destinationName":"Perth International Airport","city_y":"Perth","country_y":"Australia","destinationLat":-31.9402999878,"destinationLon":115.9670028687,"distance":222.6542316844},{"flightNumber":"23182","originIATA":"DTW","destinationIATA":"POM","airline":"American","aircraftID":"CBKEEF45XGY374714","year":"2015","month":"05","age":55,"passengerCount":18,"name":"Antonov An-140","aircraftType":"A40","originName":"Detroit Metropolitan Wayne County Airport","city_x":"Detroit","country_x":"United States","originLat":42.2124444444,"originLon":-83.3533888889,"destinationName":"Port Moresby Jacksons International Airport","city_y":"Port Moresby","country_y":"Papua New Guinea","destinationLat":-9.4433803558,"destinationLon":147.2200012207,"distance":236.2888327078},{"flightNumber":"23733","originIATA":"KTA","destinationIATA":"ADL","airline":"Qatar","aircraftID":"Y3H677TVRTH146008","year":"2015","month":"05","age":56,"passengerCount":7,"name":"Boeing 747","aircraftType":"747","originName":"Karratha Airport","city_x":"Karratha","country_x":"Australia","originLat":-20.7122001648,"originLon":116.773002625,"destinationName":"Adelaide International Airport","city_y":"Adelaide","country_y":"Australia","destinationLat":-34.9449996948,"destinationLon":138.5310058594,"distance":25.9996785982},{"flightNumber":"25637","originIATA":"KUL","destinationIATA":"CDG","airline":"Emirates","aircraftID":"SK49197A3XWZ48883","year":"2015","month":"05","age":39,"passengerCount":12,"name":"Boeing 720B","aircraftType":"B72","originName":"Kuala Lumpur International Airport","city_x":"Kuala Lumpur","country_x":"Malaysia","originLat":2.745579958,"originLon":101.7099990845,"destinationName":"Charles de Gaulle International Airport","city_y":"Paris","country_y":"France","destinationLat":49.0127983093,"destinationLon":2.5499999523,"distance":109.4228537458},{"flightNumber":"33397","originIATA":"NTL","destinationIATA":"DEL","airline":"LATAM","aircraftID":"KG981XZ2YVMV20720","year":"2015","month":"05","age":37,"passengerCount":10,"name":"Boeing 767","aircraftType":"767","originName":"Newcastle Airport","city_x":"Newcastle","country_x":"Australia","originLat":-32.7949981689,"originLon":151.8339996338,"destinationName":"Indira Gandhi International Airport","city_y":"Delhi","country_y":"India","destinationLat":28.5664997101,"destinationLon":77.1031036377,"distance":96.6950890084},{"flightNumber":"34165","originIATA":"PTY","destinationIATA":"CPH","airline":"Iberia","aircraftID":"TYYP58MXYWGM32551","year":"2015","month":"05","age":52,"passengerCount":11,"name":"Boeing 727-100","aircraftType":"721","originName":"Tocumen International Airport","city_x":"Panama City","country_x":"Panama","originLat":9.0713596344,"originLon":-79.3834991455,"destinationName":"Copenhagen Airport","city_y":"Copenhagen","country_y":"Denmark","destinationLat":55.6179008484,"destinationLon":12.6560001373,"distance":103.1399531085},{"flightNumber":"37459","originIATA":"EZE","destinationIATA":"VIE","airline":"Emirates","aircraftID":"L89LVHJ0LVE922521","year":"2015","month":"05","age":61,"passengerCount":8,"name":"Ilyushin IL18","aircraftType":"IL8","originName":"Ministro Pistarini International Airport","city_x":"Buenos Aires","country_x":"Argentina","originLat":-34.8222,"originLon":-58.5358,"destinationName":"Vienna International Airport","city_y":"Vienna","country_y":"Austria","destinationLat":48.1102981567,"destinationLon":16.5697002411,"distance":111.8867079549},{"flightNumber":"44314","originIATA":"AGA","destinationIATA":"MUC","airline":"Iberia","aircraftID":"V4M6T8S585MT60406","year":"2015","month":"05","age":64,"passengerCount":19,"name":"Embraer E190-E2","aircraftType":"290","originName":"Agadir\u2013Al Massira Airport","city_x":"Agadir","country_x":"Morocco","originLat":30.3250007629,"originLon":-9.413069725,"destinationName":"Munich Airport","city_y":"Munich","country_y":"Germany","destinationLat":48.3538017273,"destinationLon":11.7861003876,"distance":27.8288066161},{"flightNumber":"47165","originIATA":"BSB","destinationIATA":"SSH","airline":"American","aircraftID":"XKSZ4HVW87DA66970","year":"2015","month":"05","age":54,"passengerCount":17,"name":"Ilyushin IL96-300","aircraftType":"I93","originName":"Presidente Juscelino Kubistschek International Airport","city_x":"Brasilia","country_x":"Brazil","originLat":-15.8691673279,"originLon":-47.9208335876,"destinationName":"Sharm El Sheikh International Airport","city_y":"Sharm El Sheikh","country_y":"Egypt","destinationLat":27.9773006439,"destinationLon":34.3950004578,"distance":93.2652630307},{"flightNumber":"47345","originIATA":"TSV","destinationIATA":"KTA","airline":"Emirates","aircraftID":"GPGS3MBZN9HW11899","year":"2015","month":"05","age":34,"passengerCount":10,"name":"De Havilland Canada DHC-8-400 Dash 8Q","aircraftType":"DH4","originName":"Townsville Airport","city_x":"Townsville","country_x":"Australia","originLat":-19.2525005341,"originLon":146.7649993896,"destinationName":"Karratha Airport","city_y":"Karratha","country_y":"Australia","destinationLat":-20.7122001648,"destinationLon":116.773002625,"distance":30.0274972807},{"flightNumber":"53626","originIATA":"SCL","destinationIATA":"JNB","airline":"American","aircraftID":"GS3B723CFPHT20205","year":"2015","month":"05","age":61,"passengerCount":8,"name":"Airbus A350-900","aircraftType":"359","originName":"Comodoro Arturo Merino Ben\u00edtez International Airport","city_x":"Santiago","country_x":"Chile","originLat":-33.3930015564,"originLon":-70.7857971191,"destinationName":"O. R. Tambo International Airport","city_y":"Johannesburg","country_y":"South Africa","destinationLat":-26.133667,"destinationLon":28.242333,"distance":99.2938492208},{"flightNumber":"56242","originIATA":"NAN","destinationIATA":"HTI","airline":"Emirates","aircraftID":"HLZB6X9E35CF19529","year":"2015","month":"05","age":58,"passengerCount":24,"name":"Canadair Regional Jet 100","aircraftType":"CR1","originName":"Nadi International Airport","city_x":"Nandi","country_x":"Fiji","originLat":-17.755399704,"originLon":177.4429931641,"destinationName":"Hamilton Island Airport","city_y":"Hamilton Island","country_y":"Australia","destinationLat":-20.3581008911,"destinationLon":148.95199585,"distance":28.6096309207},{"flightNumber":"67486","originIATA":"WLG","destinationIATA":"SLC","airline":"Qatar","aircraftID":"VE9KLFPXJ0PG82951","year":"2015","month":"05","age":56,"passengerCount":11,"name":"Airbus A310","aircraftType":"310","originName":"Wellington International Airport","city_x":"Wellington","country_x":"New Zealand","originLat":-41.3272018433,"originLon":174.804992676,"destinationName":"Salt Lake City International Airport","city_y":"Salt Lake City","country_y":"United States","destinationLat":40.7883933333,"destinationLon":-111.9777733333,"distance":298.3074351255},{"flightNumber":"68371","originIATA":"NPE","destinationIATA":"AEP","airline":"Iberia","aircraftID":"EX80P2EAB8Y044956","year":"2015","month":"05","age":39,"passengerCount":10,"name":"Tupolev Tu-134","aircraftType":"TU3","originName":"Hawke's Bay Airport","city_x":"NAPIER","country_x":"New Zealand","originLat":-39.465801239,"originLon":176.8699951172,"destinationName":"Aeroparque Jorge Newbery","city_y":"Buenos Aires","country_y":"Argentina","destinationLat":-34.5592,"destinationLon":-58.4156,"distance":235.3367502227},{"flightNumber":"79138","originIATA":"CUN","destinationIATA":"CAN","airline":"Qatar","aircraftID":"KK4KTVMHNJRK97036","year":"2015","month":"05","age":57,"passengerCount":12,"name":"Boeing 767-400","aircraftType":"764","originName":"Canc\u00fan International Airport","city_x":"Cancun","country_x":"Mexico","originLat":21.0365009308,"originLon":-86.8770980835,"destinationName":"Guangzhou Baiyun International Airport","city_y":"Guangzhou","country_y":"China","destinationLat":23.3924007416,"destinationLon":113.2990036011,"distance":200.1899646575},{"flightNumber":"80172","originIATA":"SAN","destinationIATA":"CWB","airline":"American","aircraftID":"MY8GCN73YKC357877","year":"2015","month":"05","age":45,"passengerCount":7,"name":"Embraer 175","aircraftType":"E75","originName":"San Diego International Airport","city_x":"San Diego","country_x":"United States","originLat":32.7335627778,"originLon":-117.1896633333,"destinationName":"Afonso Pena Airport","city_y":"Curitiba","country_y":"Brazil","destinationLat":-25.5284996033,"destinationLon":-49.1758003235,"distance":89.5564262039},{"flightNumber":"88665","originIATA":"LIM","destinationIATA":"DUR","airline":"American","aircraftID":"AWK06M47HYM533840","year":"2015","month":"05","age":42,"passengerCount":13,"name":"De Havilland Canada DHC-3 Otter","aircraftType":"DHL","originName":"Jorge Ch\u00e1vez International Airport","city_x":"Lima","country_x":"Peru","originLat":-12.021900177,"originLon":-77.1143035889,"destinationName":"King Shaka International Airport","city_y":"Durban","country_y":"South Africa","destinationLat":-29.6144444444,"destinationLon":31.1197222222,"distance":109.6544661976},{"flightNumber":"89684","originIATA":"PHX","destinationIATA":"CPH","airline":"Qatar","aircraftID":"VNLPX43UT6CN63235","year":"2015","month":"05","age":36,"passengerCount":13,"name":"Douglas DC-10","aircraftType":"D10","originName":"Phoenix Sky Harbor International Airport","city_x":"Phoenix","country_x":"United States","originLat":33.4342777778,"originLon":-112.0115833333,"destinationName":"Copenhagen Airport","city_y":"Copenhagen","country_y":"Denmark","destinationLat":55.6179008484,"destinationLon":12.6560001373,"distance":126.6259037517},{"flightNumber":"97118","originIATA":"SAW","destinationIATA":"EWR","airline":"American","aircraftID":"YYEHKDD7D5CB61744","year":"2015","month":"05","age":46,"passengerCount":30,"name":"Boeing 717","aircraftType":"717","originName":"Sabiha G\u00f6k\u00e7en International Airport","city_x":"Istanbul","country_x":"Turkey","originLat":40.898601532,"originLon":29.3092002869,"destinationName":"Newark Liberty International Airport","city_y":"Newark","country_y":"United States","destinationLat":40.6924798333,"destinationLon":-74.1686867778,"distance":103.4780923555},{"flightNumber":"98258","originIATA":"ASP","destinationIATA":"IAH","airline":"Emirates","aircraftID":"Y68DG0YYHFJ881553","year":"2015","month":"05","age":52,"passengerCount":15,"name":"Douglas DC-10-10","aircraftType":"D1X","originName":"Alice Springs Airport","city_x":"Alice Springs","country_x":"Australia","originLat":-23.8066997528,"originLon":133.9019927979,"destinationName":"George Bush Intercontinental Houston Airport","city_y":"Houston","country_y":"United States","destinationLat":29.9844352778,"destinationLon":-95.3414425,"distance":235.4698257422},{"flightNumber":"99584","originIATA":"CDG","destinationIATA":"EBB","airline":"Qatar","aircraftID":"TEDL0A1TRDJ262975","year":"2015","month":"05","age":58,"passengerCount":15,"name":"McDonnell Douglas MD88","aircraftType":"M88","originName":"Charles de Gaulle International Airport","city_x":"Paris","country_x":"France","originLat":49.0127983093,"originLon":2.5499999523,"destinationName":"Entebbe International Airport","city_y":"Entebbe","country_y":"Uganda","destinationLat":0.0423859991,"destinationLon":32.4435005188,"distance":57.3735362162},{"flightNumber":"10624","originIATA":"NPE","destinationIATA":"GDL","airline":"Emirates","aircraftID":"KE1KAMYYRHMR65255","year":"2015","month":"06","age":55,"passengerCount":13,"name":"Boeing 737 MAX 10","aircraftType":"7MJ","originName":"Hawke's Bay Airport","city_x":"NAPIER","country_x":"New Zealand","originLat":-39.465801239,"originLon":176.8699951172,"destinationName":"Guadalajara International Airport","city_y":"Guadalajara","country_y":"Mexico","destinationLat":20.5217990875,"destinationLon":-103.3109970093,"distance":286.5308020823},{"flightNumber":"16020","originIATA":"LIS","destinationIATA":"MEX","airline":"Qatar","aircraftID":"JRZ1MU2UTMJD32908","year":"2015","month":"06","age":46,"passengerCount":24,"name":"Boeing 757-200","aircraftType":"752","originName":"Lisbon Portela Airport","city_x":"Lisbon","country_x":"Portugal","originLat":38.7812995911,"originLon":-9.1359195709,"destinationName":"Mexico City International Airport","city_y":"Mexico City","country_y":"Mexico","destinationLat":19.4363002777,"destinationLon":-99.0720977783,"distance":91.9931799048},{"flightNumber":"16287","originIATA":"EWR","destinationIATA":"TUN","airline":"American","aircraftID":"YVBNGGYPGCUC59278","year":"2015","month":"06","age":51,"passengerCount":29,"name":"Boeing 737-100","aircraftType":"731","originName":"Newark Liberty International Airport","city_x":"Newark","country_x":"United States","originLat":40.6924798333,"originLon":-74.1686867778,"destinationName":"Tunis Carthage International Airport","city_y":"Tunis","country_y":"Tunisia","destinationLat":36.8510017395,"destinationLon":10.2271995544,"distance":84.4832680697},{"flightNumber":"21532","originIATA":"AGA","destinationIATA":"MAN","airline":"American","aircraftID":"H271NWLH0WJV69313","year":"2015","month":"06","age":50,"passengerCount":16,"name":"Douglas DC-10-30","aircraftType":"D1Y","originName":"Agadir\u2013Al Massira Airport","city_x":"Agadir","country_x":"Morocco","originLat":30.3250007629,"originLon":-9.413069725,"destinationName":"Manchester Airport","city_y":"Manchester","country_y":"United Kingdom","destinationLat":53.3536987305,"destinationLon":-2.2749500275,"distance":24.1096180579},{"flightNumber":"28039","originIATA":"GRU","destinationIATA":"DUB","airline":"Emirates","aircraftID":"1GBT9CLY1MDY27670","year":"2015","month":"06","age":59,"passengerCount":22,"name":"Boeing 747SP","aircraftType":"74L","originName":"S\u00e3o Paulo\u2013Guarulhos International Airport","city_x":"Sao Paulo","country_x":"Brazil","originLat":-23.4355564117,"originLon":-46.4730567932,"destinationName":"Dublin Airport","city_y":"Dublin","country_y":"Ireland","destinationLat":53.4212989807,"destinationLon":-6.270070076,"distance":86.7367071187},{"flightNumber":"28161","originIATA":"HKG","destinationIATA":"DTW","airline":"Qatar","aircraftID":"VWDM0WF7G9DU51853","year":"2015","month":"06","age":39,"passengerCount":18,"name":"De Havilland Canada DHC-8-100 Dash 8 \/ 8Q","aircraftType":"DH1","originName":"Hong Kong International Airport","city_x":"Hong Kong","country_x":"Hong Kong","originLat":22.3089008331,"originLon":113.915000916,"destinationName":"Detroit Metropolitan Wayne County Airport","city_y":"Detroit","country_y":"United States","destinationLat":42.2124444444,"destinationLon":-83.3533888889,"distance":198.2699388826},{"flightNumber":"37088","originIATA":"ACC","destinationIATA":"MCY","airline":"American","aircraftID":"D7SUGK75R1SY61792","year":"2015","month":"06","age":49,"passengerCount":15,"name":"Boeing 707","aircraftType":"703","originName":"Kotoka International Airport","city_x":"Accra","country_x":"Ghana","originLat":5.6051898003,"originLon":-0.1667860001,"destinationName":"Sunshine Coast Airport","city_y":"Maroochydore","country_y":"Australia","destinationLat":-26.6033000946,"destinationLon":153.091003418,"distance":156.605673073},{"flightNumber":"41631","originIATA":"LST","destinationIATA":"BNE","airline":"Iberia","aircraftID":"RH6EVD5JY7AP94723","year":"2015","month":"06","age":45,"passengerCount":14,"name":"Airbus A380-800","aircraftType":"388","originName":"Launceston Airport","city_x":"Launceston","country_x":"Australia","originLat":-41.54529953,"originLon":147.214004517,"destinationName":"Brisbane International Airport","city_y":"Brisbane","country_y":"Australia","destinationLat":-27.3841991425,"destinationLon":153.1170043945,"distance":15.3421697207},{"flightNumber":"41881","originIATA":"CHC","destinationIATA":"LOS","airline":"LATAM","aircraftID":"JL4UZA9NRVHE37673","year":"2015","month":"06","age":50,"passengerCount":21,"name":"Airbus A340","aircraftType":"340","originName":"Christchurch International Airport","city_x":"Christchurch","country_x":"New Zealand","originLat":-43.4893989563,"originLon":172.5319976807,"destinationName":"Murtala Muhammed International Airport","city_y":"Lagos","country_y":"Nigeria","destinationLat":6.5773701668,"destinationLon":3.321160078,"distance":176.4624292382},{"flightNumber":"45638","originIATA":"IAD","destinationIATA":"DUB","airline":"Emirates","aircraftID":"0U2R3MRLM0UL16002","year":"2015","month":"06","age":52,"passengerCount":13,"name":"Douglas DC-6","aircraftType":"D6F","originName":"Washington Dulles International Airport","city_x":"Washington","country_x":"United States","originLat":38.9474444444,"originLon":-77.4599444444,"destinationName":"Dublin Airport","city_y":"Dublin","country_y":"Ireland","destinationLat":53.4212989807,"destinationLon":-6.270070076,"distance":72.6463397408},{"flightNumber":"45949","originIATA":"MNL","destinationIATA":"FLN","airline":"Emirates","aircraftID":"6D21KSAJMWTM65694","year":"2015","month":"06","age":60,"passengerCount":13,"name":"Boeing 777-300","aircraftType":"773","originName":"Ninoy Aquino International Airport","city_x":"Manila","country_x":"Philippines","originLat":14.508600235,"originLon":121.019996643,"destinationName":"Herc\u00edlio Luz International Airport","city_y":"Florianopolis","country_y":"Brazil","destinationLat":-27.6702785492,"destinationLon":-48.5525016785,"distance":174.7394918228},{"flightNumber":"50015","originIATA":"MCO","destinationIATA":"MKY","airline":"British Airways","aircraftID":"DNFTE1XJ0UZY36269","year":"2015","month":"06","age":63,"passengerCount":8,"name":"Boeing 777-200","aircraftType":"772","originName":"Orlando International Airport","city_x":"Orlando","country_x":"United States","originLat":28.4293888889,"originLon":-81.309,"destinationName":"Mackay Airport","city_y":"Mackay","country_y":"Australia","destinationLat":-21.1716995239,"destinationLon":149.179992676,"distance":235.7656542343},{"flightNumber":"50238","originIATA":"ATL","destinationIATA":"GIG","airline":"Iberia","aircraftID":"SUZJL4FDCDSA44883","year":"2015","month":"06","age":35,"passengerCount":6,"name":"Lockheed L-182 \/ 282 \/ 382 (L-100) Hercules","aircraftType":"LOH","originName":"Hartsfield\u2013Jackson Atlanta International Airport","city_x":"Atlanta","country_x":"United States","originLat":33.6366996111,"originLon":-84.427864,"destinationName":"Rio de Janeiro\u2013Gale\u00e3o International Airport","city_y":"Rio De Janeiro","country_y":"Brazil","destinationLat":-22.8099994659,"destinationLon":-43.2505569458,"distance":69.8698823022},{"flightNumber":"52445","originIATA":"ICN","destinationIATA":"CAN","airline":"Iberia","aircraftID":"JN8EMMG0R5LA33277","year":"2015","month":"06","age":41,"passengerCount":25,"name":"Douglas DC-10","aircraftType":"D10","originName":"Incheon International Airport","city_x":"Seoul","country_x":"South Korea","originLat":37.4691009521,"originLon":126.4509963989,"destinationName":"Guangzhou Baiyun International Airport","city_y":"Guangzhou","country_y":"China","destinationLat":23.3924007416,"destinationLon":113.2990036011,"distance":19.2646931813},{"flightNumber":"54439","originIATA":"MUC","destinationIATA":"BSB","airline":"American","aircraftID":"2K582FYMD4S340420","year":"2015","month":"06","age":48,"passengerCount":15,"name":"Antonov An-124 Ruslan","aircraftType":"A4F","originName":"Munich Airport","city_x":"Munich","country_x":"Germany","originLat":48.3538017273,"originLon":11.7861003876,"destinationName":"Presidente Juscelino Kubistschek International Airport","city_y":"Brasilia","country_y":"Brazil","destinationLat":-15.8691673279,"destinationLon":-47.9208335876,"distance":87.689838174},{"flightNumber":"55594","originIATA":"ADL","destinationIATA":"SDU","airline":"Qatar","aircraftID":"X706N6L9Y3FA70574","year":"2015","month":"06","age":54,"passengerCount":8,"name":"Canadair Regional Jet 200","aircraftType":"CR2","originName":"Adelaide International Airport","city_x":"Adelaide","country_x":"Australia","originLat":-34.9449996948,"originLon":138.5310058594,"destinationName":"Santos Dumont Airport","city_y":"Rio De Janeiro","country_y":"Brazil","destinationLat":-22.9104995728,"destinationLon":-43.1631011963,"distance":182.0922231507},{"flightNumber":"57574","originIATA":"FRA","destinationIATA":"BCN","airline":"British Airways","aircraftID":"2KY80CVRWLWY53510","year":"2015","month":"06","age":48,"passengerCount":7,"name":"Antonov An-140","aircraftType":"A40","originName":"Frankfurt am Main International Airport","city_x":"Frankfurt","country_x":"Germany","originLat":50.0264015198,"originLon":8.543129921,"destinationName":"Barcelona\u2013El Prat Airport","city_y":"Barcelona","country_y":"Spain","destinationLat":41.2971000671,"destinationLon":2.0784599781,"distance":10.8624426959},{"flightNumber":"60162","originIATA":"MEX","destinationIATA":"ORN","airline":"Emirates","aircraftID":"YPNKN5PFE6J323015","year":"2015","month":"06","age":44,"passengerCount":13,"name":"Boeing 777-300ER","aircraftType":"77W","originName":"Mexico City International Airport","city_x":"Mexico City","country_x":"Mexico","originLat":19.4363002777,"originLon":-99.0720977783,"destinationName":"Es Senia Airport","city_y":"Oran","country_y":"Algeria","destinationLat":35.6239013672,"destinationLon":-0.6211829782,"distance":99.7728472783},{"flightNumber":"62958","originIATA":"SAW","destinationIATA":"CMN","airline":"American","aircraftID":"80CFMR5GN0T810982","year":"2015","month":"06","age":61,"passengerCount":20,"name":"Lockheed L-188 Electra","aircraftType":"LOE","originName":"Sabiha G\u00f6k\u00e7en International Airport","city_x":"Istanbul","country_x":"Turkey","originLat":40.898601532,"originLon":29.3092002869,"destinationName":"Mohammed V International Airport","city_y":"Casablanca","country_y":"Morocco","destinationLat":33.3675003052,"destinationLon":-7.5899701118,"distance":37.6598760195},{"flightNumber":"66291","originIATA":"SDU","destinationIATA":"JNB","airline":"Qatar","aircraftID":"N9Z88WHNFAYJ18054","year":"2015","month":"06","age":58,"passengerCount":6,"name":"De Havilland Canada DHC-3 Otter","aircraftType":"DHL","originName":"Santos Dumont Airport","city_x":"Rio De Janeiro","country_x":"Brazil","originLat":-22.9104995728,"originLon":-43.1631011963,"destinationName":"O. R. Tambo International Airport","city_y":"Johannesburg","country_y":"South Africa","destinationLat":-26.133667,"destinationLon":28.242333,"distance":71.4781424005},{"flightNumber":"69506","originIATA":"MCY","destinationIATA":"FLN","airline":"Emirates","aircraftID":"HL51ZLMF8HLP89991","year":"2015","month":"06","age":43,"passengerCount":13,"name":"Boeing 707","aircraftType":"703","originName":"Sunshine Coast Airport","city_x":"Maroochydore","country_x":"Australia","originLat":-26.6033000946,"originLon":153.091003418,"destinationName":"Herc\u00edlio Luz International Airport","city_y":"Florianopolis","country_y":"Brazil","destinationLat":-27.6702785492,"destinationLon":-48.5525016785,"distance":201.646327987},{"flightNumber":"69661","originIATA":"CUN","destinationIATA":"AEP","airline":"Iberia","aircraftID":"FRUL01HH9YZ428984","year":"2015","month":"06","age":48,"passengerCount":15,"name":"Airbus A350","aircraftType":"350","originName":"Canc\u00fan International Airport","city_x":"Cancun","country_x":"Mexico","originLat":21.0365009308,"originLon":-86.8770980835,"destinationName":"Aeroparque Jorge Newbery","city_y":"Buenos Aires","country_y":"Argentina","destinationLat":-34.5592,"destinationLon":-58.4156,"distance":62.4574962286},{"flightNumber":"70801","originIATA":"TXL","destinationIATA":"CMN","airline":"British Airways","aircraftID":"JL0FAJ13N3PZ78149","year":"2015","month":"06","age":58,"passengerCount":19,"name":"Tupolev Tu-154","aircraftType":"TU5","originName":"Berlin-Tegel International Airport","city_x":"Berlin","country_x":"Germany","originLat":52.5597000122,"originLon":13.2876996994,"destinationName":"Mohammed V International Airport","city_y":"Casablanca","country_y":"Morocco","destinationLat":33.3675003052,"destinationLon":-7.5899701118,"distance":28.3587310425},{"flightNumber":"74781","originIATA":"HAV","destinationIATA":"HAV","airline":"Qatar","aircraftID":"SCUB791Z6YMH69833","year":"2015","month":"06","age":44,"passengerCount":16,"name":"Airbus A320","aircraftType":"320","originName":"Jos\u00e9 Mart\u00ed International Airport","city_x":"Havana","country_x":"Cuba","originLat":22.989200592,"originLon":-82.4091033936,"destinationName":"Jos\u00e9 Mart\u00ed International Airport","city_y":"Havana","country_y":"Cuba","destinationLat":22.989200592,"destinationLon":-82.4091033936,"distance":0.0},{"flightNumber":"75880","originIATA":"EBB","destinationIATA":"CNS","airline":"Qatar","aircraftID":"XF3XU83XK1RD15137","year":"2015","month":"06","age":47,"passengerCount":15,"name":"Lockheed L-188 Electra","aircraftType":"LOE","originName":"Entebbe International Airport","city_x":"Entebbe","country_x":"Uganda","originLat":0.0423859991,"originLon":32.4435005188,"destinationName":"Cairns International Airport","city_y":"Cairns","country_y":"Australia","destinationLat":-16.885799408,"destinationLon":145.755004883,"distance":114.5690206053},{"flightNumber":"76246","originIATA":"ZRH","destinationIATA":"HGH","airline":"British Airways","aircraftID":"KZZXSAU201EX41651","year":"2015","month":"06","age":52,"passengerCount":20,"name":"De Havilland DH.104 Dove","aircraftType":"DHD","originName":"Z\u00fcrich Airport","city_x":"Zurich","country_x":"Switzerland","originLat":47.4646987915,"originLon":8.5491695404,"destinationName":"Hangzhou Xiaoshan International Airport","city_y":"Hangzhou","country_y":"China","destinationLat":30.2294998169,"destinationLon":120.4339981079,"distance":113.2045358953},{"flightNumber":"76842","originIATA":"CLT","destinationIATA":"SIN","airline":"British Airways","aircraftID":"1K9PP0B5HYU562021","year":"2015","month":"06","age":58,"passengerCount":36,"name":"Boeing 737","aircraftType":"737","originName":"Charlotte Douglas International Airport","city_x":"Charlotte","country_x":"United States","originLat":35.21375,"originLon":-80.9490555556,"destinationName":"Singapore Changi Airport","city_y":"Singapore","country_y":"Singapore","destinationLat":1.3501900434,"destinationLon":103.9940032959,"distance":188.0177537103},{"flightNumber":"77557","originIATA":"ATL","destinationIATA":"AMS","airline":"Qatar","aircraftID":"B5VXJM89XERM87994","year":"2015","month":"06","age":49,"passengerCount":18,"name":"Douglas DC-9-50","aircraftType":"D95","originName":"Hartsfield\u2013Jackson Atlanta International Airport","city_x":"Atlanta","country_x":"United States","originLat":33.6366996111,"originLon":-84.427864,"destinationName":"Amsterdam Airport Schiphol","city_y":"Amsterdam","country_y":"Netherlands","destinationLat":52.3086013794,"destinationLon":4.7638897896,"distance":91.1252372272},{"flightNumber":"80819","originIATA":"MTY","destinationIATA":"PTY","airline":"Qatar","aircraftID":"SYWXBCJ40GZC37990","year":"2015","month":"06","age":39,"passengerCount":8,"name":"Boeing 777-300","aircraftType":"773","originName":"Monterrey International Airport","city_x":"Monterrey","country_x":"Mexico","originLat":25.7784996033,"originLon":-100.107002258,"destinationName":"Tocumen International Airport","city_y":"Panama City","country_y":"Panama","destinationLat":9.0713596344,"destinationLon":-79.3834991455,"distance":26.6193934415},{"flightNumber":"91953","originIATA":"HGH","destinationIATA":"DUS","airline":"American","aircraftID":"JWXXVCY5MBVE50007","year":"2015","month":"06","age":49,"passengerCount":20,"name":"McDonnell Douglas MD81","aircraftType":"M81","originName":"Hangzhou Xiaoshan International Airport","city_x":"Hangzhou","country_x":"China","originLat":30.2294998169,"originLon":120.4339981079,"destinationName":"D\u00fcsseldorf International Airport","city_y":"Duesseldorf","country_y":"Germany","destinationLat":51.2895011902,"destinationLon":6.7667798996,"distance":115.6017307529},{"flightNumber":"12769","originIATA":"SYD","destinationIATA":"ALG","airline":"LATAM","aircraftID":"JD10PAHE3MXR30249","year":"2015","month":"07","age":47,"passengerCount":11,"name":"Antonov An-28","aircraftType":"A28","originName":"Sydney Airport","city_x":"Sydney","country_x":"Australia","originLat":-33.9460983276,"originLon":151.1770019531,"destinationName":"Houari Boumediene Airport","city_y":"Algier","country_y":"Algeria","destinationLat":36.6910018921,"destinationLon":3.2154099941,"distance":163.9580209154},